timestamp,ATTITUDE.time_boot_ms,ATTITUDE.roll,ATTITUDE.pitch,ATTITUDE.yaw,ATTITUDE.rollspeed,ATTITUDE.pitchspeed,ATTITUDE.yawspeed
1437195928.05209994,103657,-0.02157817967236042,0.009506508708000183,-0.7320735454559326,-0.04940974339842796,0.02832585945725441,-0.00030915599199943244
1437195928.36618805,104380,-0.02101420797407627,0.009119804948568344,-0.7318764925003052,-0.04873340576887131,0.028565475717186928,-0.0001574623165652156
1437195928.69028783,105223,-0.020963123068213463,0.00921677052974701,-0.7312000393867493,-0.049687255173921585,0.028563007712364197,0.0001285578910028562
1437195928.93245196,106186,-0.02063240297138691,0.008976895362138748,-0.7311663031578064,-0.05053861811757088,0.028080645948648453,9.710370795801282e-05
1437195929.62780786,107191,-0.02032417245209217,0.009332645684480667,-0.7308039665222168,-0.04862702637910843,0.02806706167757511,1.1800521861005109e-05
1437195930.54627204,108115,-0.020391514524817467,0.009325023740530014,-0.7305440306663513,-0.05015295371413231,0.02896919474005699,-0.0006438987911678851
1437195931.54856801,108960,-0.020697668194770813,0.009411562234163284,-0.7301862835884094,-0.0514354333281517,0.028589073568582535,0.001313830609433353
1437195932.26794386,109724,-0.02010936662554741,0.009320534765720367,-0.7300682067871094,-0.052512768656015396,0.0290202796459198,-0.00012049291399307549
1437195933.00407195,110486,-0.02021474950015545,0.009405858814716339,-0.7300105690956116,-0.05117177590727806,0.028356030583381653,-6.415614188881591e-05
1437195933.82050395,111249,-0.02001817338168621,0.008777126669883728,-0.7303147315979004,-0.052014827728271484,0.02995932102203369,0.0006116913282312453
1437195934.37590003,111933,-0.019454319030046463,0.008698999881744385,-0.7305247783660889,-0.05171840637922287,0.02918301336467266,0.0006201564101502299
1437195935.06004000,112535,-0.01972799003124237,0.008818697184324265,-0.7307894825935364,-0.04934097081422806,0.029278595000505447,0.0007459589396603405
1437195935.67917991,113137,-0.019336359575390816,0.008836396038532257,-0.7308650016784668,-0.05097993463277817,0.029787670820951462,3.588994513847865e-05
1437195936.10236788,113660,-0.019101442769169807,0.008611109107732773,-0.7305774092674255,-0.0530000664293766,0.02907872572541237,-0.001149155548773706
1437195936.71257591,114181,-0.019281156361103058,0.009067893028259277,-0.7306586503982544,-0.05155617371201515,0.02944002114236355,0.0017568926559761167
1437195937.13581586,114625,-0.019026299938559532,0.008719641715288162,-0.7306894063949585,-0.0546874925494194,0.029694247990846634,-0.00019539047207217664
1437195937.54888391,115067,-0.019412091001868248,0.008420921862125397,-0.7306361794471741,-0.05367952585220337,0.029925914481282234,0.0007021958008408546
1437195938.07319188,115469,-0.01932472176849842,0.00828547403216362,-0.7305161952972412,-0.05372117832303047,0.03001927025616169,0.0007168093579821289
1437195938.39730787,115871,-0.019314030185341835,0.008074518293142319,-0.7306342720985413,-0.05439402163028717,0.02941412292420864,0.0004182348493486643
1437195938.69357204,116273,-0.01943168230354786,0.00791184976696968,-0.7308436036109924,-0.05417195335030556,0.030173052102327347,-0.0003326183359604329
1437195939.19473982,116635,-0.019215591251850128,0.007880743592977524,-0.7306063175201416,-0.055376093834638596,0.02992258593440056,0.0011579067213460803
1437195939.46283984,116997,-0.019709520041942596,0.008037079125642776,-0.7304139137268066,-0.053077079355716705,0.029572412371635437,-0.00017132455832324922
1437195939.84585190,117359,-0.019319714978337288,0.007961597293615341,-0.7304691076278687,-0.054112955927848816,0.030435828492045403,0.00029809135594405234
1437195940.16995192,117720,-0.01959851011633873,0.008208688348531723,-0.7304515242576599,-0.05316917970776558,0.03003682941198349,0.0012291350867599249
1437195940.64326382,118082,-0.019352706149220467,0.00828617438673973,-0.7306006550788879,-0.05481462553143501,0.03013133443892002,0.00044176928349770606
1437195940.88323998,118404,-0.019418340176343918,0.008648991584777832,-0.7306246161460876,-0.05458835884928703,0.029491577297449112,0.0002663958875928074
1437195941.26937199,118726,-0.01921834610402584,0.00870625302195549,-0.7307066321372986,-0.05393480509519577,0.029751142486929893,-0.0005814871401526034
1437195941.68351984,119047,-0.01885477639734745,0.008489374071359634,-0.7310197353363037,-0.05387924611568451,0.030271928757429123,0.000644183368422091
1437195942.09788394,119368,-0.019087890163064003,0.008552338927984238,-0.7310723066329956,-0.05495186895132065,0.029974360018968582,0.00011761494533857331
1437195942.51103997,119690,-0.019074317067861557,0.008497282862663269,-0.7311455607414246,-0.05369775369763374,0.03086860105395317,-0.00015478042769245803
1437195943.02124000,120011,-0.01898081786930561,0.008807539939880371,-0.730903685092926,-0.05564402416348457,0.029974082484841347,5.720730041502975e-05
1437195943.34015584,120332,-0.01894308440387249,0.008550863713026047,-0.7312358617782593,-0.054439008235931396,0.030330009758472443,0.00013908761320635676
1437195943.77942395,120654,-0.018449272960424423,0.008397474884986877,-0.7314614057540894,-0.05402153357863426,0.030751142650842667,-9.59180761128664e-05
1437195944.12682796,121016,-0.01885608583688736,0.008822575211524963,-0.7316105365753174,-0.054904744029045105,0.030117377638816833,-5.911668631597422e-05
1437195944.37564397,121377,-0.018459459766745567,0.008551366627216339,-0.7317820191383362,-0.0545579195022583,0.030355146154761314,0.0012919341679662466
1437195944.78986001,121738,-0.01834726706147194,0.00877334177494049,-0.7314678430557251,-0.054428789764642715,0.030102599412202835,0.0009972129482775927
1437195945.06821585,122141,-0.018346836790442467,0.008684322237968445,-0.7312308549880981,-0.05562543496489525,0.030121540650725365,0.0003182984364684671
1437195945.31506801,122543,-0.018031518906354904,0.008458424359560013,-0.7312681078910828,-0.05449831485748291,0.030431058257818222,0.0007707232725806534
1437195945.56428385,122946,-0.017741020768880844,0.008449245244264603,-0.7308077216148376,-0.05491042882204056,0.030324051156640053,0.0014535762602463365
1437195945.85344005,123387,-0.017582867294549942,0.00826660543680191,-0.7307420372962952,-0.054993461817502975,0.031118445098400116,0.0006546134827658534
1437195946.26649189,123829,-0.0177970789372921,0.008434023708105087,-0.7304071187973022,-0.05678459256887436,0.030523201450705528,3.5426073736744e-05
1437195946.69165587,124231,-0.017554601654410362,0.008161835372447968,-0.7305114269256592,-0.056489940732717514,0.03017355501651764,0.00019430016982369125
1437195947.10576797,124632,-0.01751023903489113,0.007931280881166458,-0.7308829426765442,-0.05642633140087128,0.03163452818989754,0.00013727131590712816
1437195947.51898384,125035,-0.01725403405725956,0.007851149886846542,-0.7307424545288086,-0.05542125180363655,0.030847936868667603,9.226468682754785e-05
1437195947.92023587,125396,-0.016762852668762207,0.00773051381111145,-0.7307564616203308,-0.055998917669057846,0.031268052756786346,0.0006280167144723237
1437195948.51444793,125757,-0.016609448939561844,0.007879164069890976,-0.7305296063423157,-0.05638083070516586,0.03103126771748066,0.0005729599506594241
1437195948.95569205,126119,-0.01633848249912262,0.007937323302030563,-0.7302440404891968,-0.05613141134381294,0.03122860938310623,0.0005889441235922277
1437195949.28364396,126480,-0.015808848664164543,0.007593624293804169,-0.7304005026817322,-0.05590340495109558,0.0307396799325943,0.0006519032176584005
1437195949.51289582,126841,-0.01627563312649727,0.007727243006229401,-0.7303401231765747,-0.05780747905373573,0.0311603806912899,0.00021728711726609617
1437195949.75796795,127204,-0.015892373397946358,0.00790945440530777,-0.7302613854408264,-0.0562448725104332,0.03187718614935875,0.00021904912136960775
1437195950.11710405,127566,-0.01590876281261444,0.007787477225065231,-0.7301467061042786,-0.05595369264483452,0.031627051532268524,-5.969464473309927e-05
1437195950.37926793,127927,-0.01582491770386696,0.00773698091506958,-0.7301837801933289,-0.05854783207178116,0.03129815310239792,0.0007572482572868466
1437195950.79441190,128288,-0.015559745952486992,0.0076659247279167175,-0.7301858067512512,-0.056773923337459564,0.0313812755048275,-4.2165123886661604e-05
1437195951.20654798,128609,-0.015484713017940521,0.00773930549621582,-0.7303839921951294,-0.05672876164317131,0.03175470232963562,0.001216642907820642
1437195951.64571190,128931,-0.015524588525295258,0.0076407454907894135,-0.7305917739868164,-0.058521438390016556,0.0318862721323967,-0.00012778359814547002
1437195951.99181604,129253,-0.0158502496778965,0.007646791636943817,-0.7305958271026611,-0.057488735765218735,0.03127045929431915,5.582031008088961e-05
1437195952.24211597,129575,-0.015630967915058136,0.007652323693037033,-0.7305824756622314,-0.05828768387436867,0.03148501366376877,0.0015677118208259344
1437195952.65590000,129897,-0.014976203441619873,0.007232140749692917,-0.7306569814682007,-0.0589628592133522,0.0314130038022995,0.0009278873330913484
1437195952.90723205,130218,-0.014984162524342537,0.007681351155042648,-0.7305972576141357,-0.05750104784965515,0.032160382717847824,0.0002544930321164429
1437195953.27149987,130539,-0.015080584213137627,0.007671177387237549,-0.7305610775947571,-0.05819433182477951,0.03176932409405708,0.0002642247127369046
1437195953.51255584,130861,-0.015214908868074417,0.007887955754995346,-0.7305095791816711,-0.057980481535196304,0.03211740404367447,-0.000450430263299495
1437195953.84054399,131182,-0.01517099142074585,0.007862567901611328,-0.7304194569587708,-0.05868281424045563,0.0321650505065918,0.0010540852090343833
1437195954.25701189,131505,-0.015117105096578598,0.007582534104585648,-0.7302589416503906,-0.0600506030023098,0.031587544828653336,0.00031353451777249575
1437195954.48589587,131827,-0.015344694256782532,0.007630176842212677,-0.730497419834137,-0.057832978665828705,0.03198248893022537,-0.0003328194725327194
1437195954.72811985,132148,-0.015578767284750938,0.007783256471157074,-0.7308163046836853,-0.05936845764517784,0.03211024031043053,-0.0008627010392956436
1437195955.09973598,132469,-0.015829771757125854,0.007780011743307114,-0.7309391498565674,-0.05765138566493988,0.03170465677976608,0.0003194064775016159
1437195955.34942794,132790,-0.015640942379832268,0.007981017231941223,-0.7308436036109924,-0.05694087967276573,0.0320398285984993,-2.4117834982462227e-05
1437195955.76350403,133113,-0.015355462208390236,0.007382586598396301,-0.7311160564422607,-0.05829821527004242,0.031471844762563705,0.00045073131332173944
1437195956.11970782,133434,-0.015430165454745293,0.007425118237733841,-0.7310532331466675,-0.06096254661679268,0.03215799108147621,0.000875722907949239
1437195956.34965205,133755,-0.015423743054270744,0.007683631032705307,-0.7308332324028015,-0.05954460799694061,0.03227301314473152,-0.00021818274399265647
1437195956.61777997,134076,-0.0157014150172472,0.007561232894659042,-0.7309890389442444,-0.0587732307612896,0.0317266583442688,0.00036068769986741245
1437195956.96401191,134397,-0.015625180676579475,0.007150463759899139,-0.7311364412307739,-0.05938318744301796,0.03208056837320328,0.000962577760219574
1437195957.21402383,134719,-0.015308365225791931,0.006947707384824753,-0.7311558127403259,-0.05946183204650879,0.03259732201695442,0.001783190295100212
1437195957.62724805,135040,-0.015524037182331085,0.007017970085144043,-0.7311241030693054,-0.059757426381111145,0.03231286257505417,0.00038366144872270525
1437195958.04140401,135362,-0.015499407425522804,0.007040776312351227,-0.7311054468154907,-0.058812111616134644,0.03227061405777931,-0.0003830395871773362
1437195958.45067596,135684,-0.01563497819006443,0.007167082279920578,-0.7312354445457458,-0.05967343598604202,0.03195752575993538,0.00042468009633012116
1437195958.70364785,136006,-0.015507319942116737,0.0069517940282821655,-0.7313952445983887,-0.06009531766176224,0.03269316628575325,0.000855755468364805
1437195959.11893201,136327,-0.015151586383581161,0.006879378110170364,-0.7315346598625183,-0.05922325327992439,0.03251614794135094,0.0005610183579847217
1437195959.43726802,136649,-0.015355231240391731,0.006766345351934433,-0.7314548492431641,-0.05949965864419937,0.03299952670931816,-0.0005937132518738508
1437195959.66651583,136971,-0.015429317951202393,0.006896637380123138,-0.7314658761024475,-0.05822273716330528,0.0321258082985878,0.0006131604313850403
1437195959.90817595,137293,-0.015408424660563469,0.006880708038806915,-0.7315745949745178,-0.05952787771821022,0.032958175987005234,0.0007018335163593292
1437195960.32159591,137614,-0.01519537903368473,0.00679720938205719,-0.7316420674324036,-0.06042306497693062,0.03260938078165054,-0.0014400552026927471
1437195960.73476386,137937,-0.01457086019217968,0.0067063793540000916,-0.7316086888313293,-0.06058075651526451,0.03171335533261299,9.431009675608948e-05
1437195961.14872384,138258,-0.014701157808303833,0.006624169647693634,-0.7314848303794861,-0.06014791876077652,0.032936036586761475,0.00024648962425999343
1437195961.39585185,138580,-0.014926843345165253,0.00689283013343811,-0.7315461039543152,-0.0594138577580452,0.032482970505952835,-0.0006150176050141454
1437195961.79702783,138902,-0.014927614480257034,0.006923507899045944,-0.7315983772277832,-0.059811174869537354,0.03265436738729477,0.00010734266106737778
1437195962.08018804,139224,-0.014693409204483032,0.006575502455234528,-0.731673538684845,-0.061122894287109375,0.03293488919734955,0.00043683566036634147
1437195962.41630387,139545,-0.014233613386750221,0.006606347858905792,-0.7316755056381226,-0.06220155581831932,0.033162474632263184,-0.0008271880797110498
1437195962.74862385,139907,-0.014417048543691635,0.006785545498132706,-0.7317285537719727,-0.060145892202854156,0.031917061656713486,0.0005780825740657747
1437195963.16154385,140269,-0.014207100495696068,0.006567798554897308,-0.7318704128265381,-0.06076567620038986,0.03211970627307892,0.000625317741651088
1437195963.39669585,140630,-0.014269094914197922,0.006638877093791962,-0.7319207787513733,-0.06114080548286438,0.03317053243517876,-0.00038735647103749216
1437195963.63387203,140993,-0.014366935938596725,0.006713956594467163,-0.7317793369293213,-0.06078549474477768,0.03291946277022362,-0.00021996287978254259
1437195964.14119196,141354,-0.01414361223578453,0.006957411766052246,-0.7321680784225464,-0.061230096966028214,0.033174723386764526,9.297931683249772e-06
1437195964.46215200,141716,-0.014369912445545197,0.0069533661007881165,-0.7323319911956787,-0.06044108048081398,0.03278329595923424,0.0009478845167905092
1437195964.77855182,142079,-0.014030694961547852,0.007036961615085602,-0.7327231764793396,-0.06034311652183533,0.032900769263505936,-0.0002669516543392092
1437195965.12335587,142440,-0.014086071401834488,0.007120184600353241,-0.732656717300415,-0.0612737201154232,0.03277973458170891,0.000518075714353472
1437195965.44168401,142801,-0.014125753194093704,0.007178224623203278,-0.7325790524482727,-0.06185033917427063,0.032425131648778915,0.0005747150280512869
1437195965.67190790,143164,-0.01361321285367012,0.0070126913487911224,-0.7325639128684998,-0.06223722919821739,0.03286595270037651,9.229573333868757e-05
1437195966.21386790,143525,-0.013960182666778564,0.007160410284996033,-0.7324923872947693,-0.061574794352054596,0.033273518085479736,0.0004788953228853643
1437195966.53194785,143887,-0.013541532680392265,0.007064998149871826,-0.7323771119117737,-0.06223170831799507,0.03324252739548683,0.0005519521655514836
1437195966.94512391,144249,-0.014016777276992798,0.007274370640516281,-0.7323257923126221,-0.06270661950111389,0.033617570996284485,0.00018296908820047975
1437195967.35943985,144611,-0.013910043984651566,0.00735950842499733,-0.7326698899269104,-0.06304017454385757,0.032832320779561996,0.001131094410084188
1437195967.77253199,144973,-0.013734832406044006,0.007072478532791138,-0.7327580451965332,-0.06208856776356697,0.03288906812667847,0.0010833698324859142
1437195968.02066803,145334,-0.014244062826037407,0.007171303033828735,-0.7329838871955872,-0.06343517452478409,0.03309611231088638,0.0019915655720978975
1437195968.29767203,145696,-0.013921821489930153,0.007034715265035629,-0.733261227607727,-0.06311947107315063,0.03280911222100258,0.0006380097474902868
1437195968.54803991,146058,-0.013730455189943314,0.0073564425110816956,-0.7328809499740601,-0.062106866389513016,0.03421972319483757,0.0005041873664595187
1437195969.04304790,146420,-0.0134957954287529,0.007066421210765839,-0.7329480051994324,-0.06180565059185028,0.03404926508665085,0.000329949805745855
1437195969.37220788,146782,-0.012963712215423584,0.007082067430019379,-0.7329059839248657,-0.06300221383571625,0.03395405411720276,-0.00020770866831298918
1437195969.63840795,147144,-0.013185331597924232,0.0072129033505916595,-0.7328293919563293,-0.06261841952800751,0.033839575946331024,0.00023401914222631603
1437195970.08223605,147506,-0.012899518013000488,0.006917387247085571,-0.7328638434410095,-0.06554319709539413,0.03325790911912918,0.000628124107606709
1437195970.41076803,147868,-0.013070054352283478,0.006956376135349274,-0.732960045337677,-0.06393348425626755,0.03368992730975151,0.0003291611501481384
1437195970.67278790,148229,-0.012818071991205215,0.007042557001113892,-0.7332768440246582,-0.061656393110752106,0.034159548580646515,9.55083014559932e-05
1437195971.11504388,148571,-0.012753518298268318,0.006888039410114288,-0.7333629131317139,-0.06363847851753235,0.03415628895163536,0.0005079039838165045
1437195971.44403195,148893,-0.012404734268784523,0.006660480052232742,-0.7337573170661926,-0.06226813420653343,0.0338074155151844,0.00045229826355353
1437195971.67517185,149215,-0.012502994388341904,0.006698474287986755,-0.733920693397522,-0.06212545931339264,0.03352398797869682,7.765788905089721e-05
1437195972.12248802,149536,-0.012598475441336632,0.006815452128648758,-0.7339242100715637,-0.06226677447557449,0.03405708447098732,-5.611974120256491e-05
1437195972.37437987,149858,-0.012572020292282104,0.006624441593885422,-0.7340399026870728,-0.06258469074964523,0.03355984389781952,0.000734127766918391
1437195972.78268790,150179,-0.012357804924249649,0.0063731856644153595,-0.7341591715812683,-0.0656011775135994,0.03387489169836044,0.0010534856701269746
1437195973.09977198,150501,-0.01183597557246685,0.006223276257514954,-0.7344183325767517,-0.06391424685716629,0.03347208350896835,8.394087490160018e-05
1437195973.32990384,150822,-0.011933665722608566,0.006163034588098526,-0.7343968152999878,-0.06315591186285019,0.033853936940431595,5.32398589712102e-05
1437195973.61121202,151144,-0.012022342532873154,0.006301518529653549,-0.7344281077384949,-0.061289530247449875,0.034119997173547745,0.00045426900032907724
1437195973.92819190,151466,-0.011781401932239532,0.006240971386432648,-0.7343510389328003,-0.06274725496768951,0.03333236277103424,0.00021138536976650357
1437195974.28732800,151747,-0.011483237147331238,0.006009429693222046,-0.73455411195755,-0.06296048313379288,0.03314480185508728,0.0005820296355523169
1437195974.70661592,152028,-0.011185847222805023,0.006083127111196518,-0.7346475720405579,-0.06356967985630035,0.0343136340379715,-2.9908091164543293e-05
1437195974.97863984,152309,-0.011118229478597641,0.006165172904729843,-0.7350506782531738,-0.06303421407938004,0.03321981430053711,0.00022037944290786982
1437195975.22774005,152590,-0.011280523613095284,0.006197541952133179,-0.7350994348526001,-0.06339656561613083,0.03409787639975548,-0.0007174308993853629
1437195975.54478788,152871,-0.011253774166107178,0.006040401756763458,-0.7354472875595093,-0.06309875100851059,0.03458413854241371,-0.0004450945998542011
1437195975.79412389,153153,-0.010889189317822456,0.00563427060842514,-0.735426664352417,-0.06452839076519012,0.03451847657561302,0.0006389031768776476
1437195976.20761585,153435,-0.010484658181667328,0.005423847585916519,-0.7355412840843201,-0.06255726516246796,0.03387431055307388,0.00029394860030151904
1437195976.44014382,153717,-0.010383609682321548,0.005289018154144287,-0.735677182674408,-0.0644385814666748,0.033821456134319305,0.00041222633444704115
1437195976.67720389,153998,-0.01065048761665821,0.005305107682943344,-0.7359331846237183,-0.06577448546886444,0.03434525430202484,-0.00032692725653760135
1437195977.11644793,154279,-0.010679962113499641,0.004993069916963577,-0.7361171841621399,-0.0658530667424202,0.03324701264500618,0.0011099687544628978
1437195977.44651985,154560,-0.010112153366208076,0.005037717521190643,-0.7361290454864502,-0.06374909728765488,0.03361198306083679,0.00043852266389876604
1437195977.68063188,154840,-0.009967582300305367,0.004754737019538879,-0.7364484667778015,-0.06577721238136292,0.03433235362172127,0.0001552986796014011
1437195977.94485188,155122,-0.00987591315060854,0.004859030246734619,-0.7363523244857788,-0.06478995084762573,0.034064579755067825,7.574062328785658e-05
1437195978.32696795,155403,-0.01024150662124157,0.004929613322019577,-0.7364475727081299,-0.06311772763729095,0.03374823182821274,0.0013968442799523473
1437195978.56805587,155685,-0.01039586029946804,0.004802752286195755,-0.7363564372062683,-0.0642252042889595,0.03505702689290047,0.0008184158359654248
1437195978.89820385,156007,-0.010285262018442154,0.00496765598654747,-0.7364280819892883,-0.06479029357433319,0.03375324606895447,0.00014683920016977936
1437195979.31137204,156328,-0.009728554636240005,0.004785824567079544,-0.7362933158874512,-0.06435041129589081,0.03406102582812309,0.0007238084799610078
1437195979.54339194,156649,-0.00958307646214962,0.004784680902957916,-0.7359614372253418,-0.06412147730588913,0.034404803067445755,-1.741284540912602e-05
1437195979.88060784,157012,-0.00995991937816143,0.004984471946954727,-0.7362477779388428,-0.06410384923219681,0.03407596796751022,-6.084060078137554e-05
1437195980.15367985,157374,-0.009911864995956421,0.0050003789365291595,-0.7364658117294312,-0.06562212109565735,0.034499023109674454,6.140596087789163e-05
1437195980.43083596,157736,-0.009645579382777214,0.0052010491490364075,-0.7365590333938599,-0.06515765935182571,0.0343790203332901,0.00029431955772452056
1437195980.75782394,158097,-0.010047173127532005,0.00534970685839653,-0.7367522120475769,-0.06567491590976715,0.03426077589392662,-0.0005288846441544592
1437195980.98903203,158459,-0.009960873052477837,0.0053104981780052185,-0.7371363043785095,-0.06498710811138153,0.03486640006303787,-0.0009225278627127409
1437195981.43628001,158820,-0.009743660688400269,0.005763739347457886,-0.7369954586029053,-0.06442753970623016,0.03423163667321205,0.0012951776152476668
1437195981.85143590,159183,-0.009631184861063957,0.0061044469475746155,-0.7372967004776001,-0.06713173538446426,0.03416171669960022,0.0008257677545771003
1437195982.26553583,159546,-0.009257782250642776,0.006299227476119995,-0.7372756004333496,-0.06503844261169434,0.03441132977604866,0.0003319772658869624
1437195982.67985988,159906,-0.009510274976491928,0.006448809057474136,-0.7373632788658142,-0.06643342971801758,0.034214433282613754,0.0018691886216402054
1437195983.03103995,160268,-0.009457442909479141,0.006734117865562439,-0.7377803921699524,-0.06651850789785385,0.03382435068488121,0.0006373398355208337
1437195983.27174783,160629,-0.009497497230768204,0.006977919489145279,-0.7379799485206604,-0.06450174748897552,0.03437568247318268,0.001464394386857748
1437195983.53408003,160991,-0.009424380026757717,0.006879132241010666,-0.7383409142494202,-0.0670824870467186,0.03447506204247475,0.0005137615953572094
1437195983.81854796,161353,-0.009448487311601639,0.0071003735065460205,-0.7387773394584656,-0.06620752066373825,0.03517092764377594,0.0012589105172082782
1437195984.17143583,161714,-0.009870032779872417,0.0072439126670360565,-0.7391879558563232,-0.06497605890035629,0.03423036262392998,0.0014691518153995275
1437195984.58067203,162076,-0.009529400616884232,0.006836749613285065,-0.7395550012588501,-0.06487493216991425,0.03443120792508125,-0.00010851601837202907
1437195984.95573997,162418,-0.009727353230118752,0.00658981129527092,-0.7398176789283752,-0.06547369062900543,0.03478012979030609,0.0012247274862602353
1437195985.31087995,162739,-0.009330034255981445,0.006381098181009293,-0.739806056022644,-0.06627821922302246,0.03433109074831009,4.894075027550571e-05
1437195985.78347993,163061,-0.009092915803194046,0.006192266941070557,-0.7400104403495789,-0.06613778322935104,0.034586288034915924,0.001113062142394483
1437195986.24372387,163383,-0.009051507338881493,0.00613684207201004,-0.7400122880935669,-0.06877133250236511,0.03582841157913208,-0.0016623076517134905
1437195986.44456792,163705,-0.009131099097430706,0.006242647767066956,-0.7401127219200134,-0.06725195050239563,0.03418976441025734,0.0008996007964015007
1437195986.84558392,164027,-0.00926555972546339,0.006206996738910675,-0.7402832508087158,-0.06661655753850937,0.034542396664619446,0.0009859786368906498
1437195987.19074798,164347,-0.009319467470049858,0.00596974790096283,-0.7404610514640808,-0.06655899435281754,0.03482909873127937,0.0006618161569349468
1437195987.43991995,164670,-0.009016968309879303,0.005945198237895966,-0.7406734228134155,-0.06631412357091904,0.03449157997965813,-0.00017007811402436346
1437195987.85306787,164991,-0.008763240650296211,0.005943659693002701,-0.7404961585998535,-0.06694859266281128,0.03469660505652428,9.118003072217107e-05
1437195988.22413588,165313,-0.008696340024471283,0.005745019763708115,-0.7407450079917908,-0.06631318479776382,0.03541911020874977,0.0005345629760995507
1437195988.47526383,165634,-0.008471811190247536,0.005646027624607086,-0.7408841848373413,-0.06609080731868744,0.035041969269514084,-0.00045871135080233216
1437195988.88949203,165955,-0.007985908538103104,0.005481276661157608,-0.7412455081939697,-0.06619465351104736,0.03535759449005127,0.0011934514623135328
1437195989.16745186,166277,-0.007658727001398802,0.0056310370564460754,-0.7414143681526184,-0.06534454226493835,0.03495599702000618,0.001428504940122366
1437195989.41367984,166599,-0.007747591473162174,0.005578000098466873,-0.7417163848876953,-0.06665366888046265,0.03510221093893051,-0.00028261487022973597
1437195989.66317987,166920,-0.007614064496010542,0.005627460777759552,-0.7419270873069763,-0.06849776953458786,0.034996967762708664,0.00010128665599040687
1437195989.89074802,167282,-0.00743401562795043,0.005616534501314163,-0.7424885630607605,-0.06708792597055435,0.035777147859334946,0.0003074686974287033
1437195990.24302387,167644,-0.007519543636590242,0.005618680268526077,-0.7424666285514832,-0.06809869408607483,0.0357433520257473,-0.0004232720530126244
1437195990.49102402,168006,-0.007238433230668306,0.005523070693016052,-0.7424123287200928,-0.06796446442604065,0.035021327435970306,0.0001270807406399399
1437195990.96230388,168368,-0.0070936111733317375,0.005398541688919067,-0.7425122261047363,-0.06647880375385284,0.03503461927175522,0.00022120874200481921
1437195991.31753588,168730,-0.006925392895936966,0.005090747028589249,-0.7426443099975586,-0.0679703876376152,0.0351584255695343,-0.0006748461746610701
1437195991.58363199,169093,-0.006728044245392084,0.004885382950305939,-0.7429332733154297,-0.06649618595838547,0.035925257951021194,0.00035346849472261965
1437195991.99767590,169454,-0.00682819914072752,0.004806160926818848,-0.7429444789886475,-0.06817707419395447,0.03479800373315811,0.0007347678183577955
1437195992.35288382,169816,-0.006658458616584539,0.004710659384727478,-0.7434660196304321,-0.06822891533374786,0.03529495745897293,-0.00020393115119077265
1437195992.61801600,170178,-0.006757396273314953,0.004830535501241684,-0.7436449527740479,-0.06624000519514084,0.03479594364762306,-0.0009355052025057375
1437195993.03221202,170500,-0.00668479735031724,0.004396919161081314,-0.7436988353729248,-0.06763327866792679,0.03525713086128235,0.0006597256870009005
1437195993.44621992,170821,-0.006785341072827578,0.004272274672985077,-0.7439093589782715,-0.06649491935968399,0.03528105840086937,0.00012016258551739156
1437195993.86048794,171143,-0.006938242353498936,0.0045346468687057495,-0.7441403865814209,-0.06728709489107132,0.034393422305583954,-1.2788706953870133e-05
1437195994.27575183,171464,-0.006695946678519249,0.004577867686748505,-0.7440915107727051,-0.06776008009910583,0.03410692512989044,-6.233398016775027e-05
1437195994.52273202,171786,-0.006519639398902655,0.00435774028301239,-0.7443004250526428,-0.06698184460401535,0.036259107291698456,0.00048069769400171936
1437195994.76103592,172108,-0.006411055568605661,0.004381716251373291,-0.7444777488708496,-0.06626467406749725,0.03554433211684227,0.0005102385184727609
1437195995.04420805,172430,-0.006303589791059494,0.004644207656383514,-0.744455099105835,-0.06722739338874817,0.03560496121644974,0.0001371788966935128
1437195995.30805588,172750,-0.00638934038579464,0.004969440400600433,-0.7446787357330322,-0.06957519054412842,0.03615695238113403,0.00039870903128758073
1437195995.54817605,173072,-0.006025043781846762,0.005186136811971664,-0.7448203563690186,-0.06844279915094376,0.035401683300733566,5.3125542763154954e-05
1437195995.87739205,173393,-0.005910866893827915,0.005153898149728775,-0.7447421550750732,-0.06778042763471603,0.0354393869638443,0.0008331912686116993
1437195996.16844392,173715,-0.0055105797946453094,0.005299270153045654,-0.7447495460510254,-0.06748117506504059,0.036400243639945984,-0.0008347047260031104
1437195996.49855995,174038,-0.005650750361382961,0.0052276551723480225,-0.7454252243041992,-0.06724150478839874,0.0355929471552372,0.00037984864320605993
1437195996.80175591,174359,-0.005839064251631498,0.005350973457098007,-0.7455621957778931,-0.06864593178033829,0.03541501238942146,0.0005774438614025712
1437195997.20282388,174680,-0.005889254622161388,0.005669251084327698,-0.7454508543014526,-0.06816000491380692,0.03567909821867943,-0.0001638770045246929
1437195997.53199196,175000,-0.00577332079410553,0.005963817238807678,-0.7457481026649475,-0.06684592366218567,0.03576017916202545,-2.4495933757862076e-05
1437195997.79115987,175323,-0.0053963810205459595,0.0055723488330841064,-0.7462342977523804,-0.06731361150741577,0.036613717675209045,0.0003433594247326255
1437195998.21122384,175644,-0.005084284581243992,0.005792923271656036,-0.7462571859359741,-0.06812654435634613,0.03475427255034447,0.0018256037728860974
1437195998.62548804,175926,-0.005112284328788519,0.005493782460689545,-0.7466267943382263,-0.06831186264753342,0.03581469878554344,0.0009600745397619903
1437195999.06367588,176207,-0.005344289820641279,0.005833439528942108,-0.7467814683914185,-0.06743980199098587,0.0356944240629673,0.0006131964037194848
1437195999.34600782,176488,-0.005294504575431347,0.005593243986368179,-0.7470651865005493,-0.06726226210594177,0.03558604419231415,0.00048456824151799083
1437195999.60187984,176770,-0.005134004168212414,0.005594741553068161,-0.7473080158233643,-0.07061897963285446,0.03604363277554512,-0.0007525968831032515
1437195999.86801982,177051,-0.004910171497613192,0.005579467862844467,-0.7475271821022034,-0.06909853219985962,0.03619850054383278,-0.00024201655469369143
1437196000.30823994,177333,-0.004751360975205898,0.005551367998123169,-0.7476426362991333,-0.07057565450668335,0.036236025393009186,9.494949335930869e-05
1437196000.63735199,177614,-0.004708214662969112,0.005331825464963913,-0.7476546168327332,-0.06918637454509735,0.03589780628681183,-0.0004308979550842196
1437196000.86743593,177937,-0.004462237935513258,0.005419343709945679,-0.7477520704269409,-0.06914108246564865,0.03596886247396469,0.0009119488531723619
1437196001.21986794,178258,-0.004433523863554001,0.005091514438390732,-0.7481494545936584,-0.06867140531539917,0.03616904094815254,0.0007838687743060291
1437196001.46876001,178579,-0.004569923970848322,0.005030803382396698,-0.7486833930015564,-0.06992433220148087,0.035787247121334076,0.0005947957397438586
1437196001.70198393,178901,-0.0045448048040270805,0.0049097128212451935,-0.7489416599273682,-0.06781314313411713,0.035938508808612823,0.0011783945374190807
1437196001.93790388,179263,-0.004515361972153187,0.004829443991184235,-0.7494016885757446,-0.06969450414180756,0.03580472245812416,0.001174955046735704
1437196002.30998802,179625,-0.004712890833616257,0.004966814070940018,-0.7500678896903992,-0.06898843497037888,0.036067478358745575,0.0005494224606081843
1437196002.55812788,179987,-0.004724929574877024,0.004866335541009903,-0.7501721382141113,-0.06976582854986191,0.03607293218374252,-0.00027208932442590594
1437196002.97236800,180349,-0.004544616676867008,0.004962686449289322,-0.7502160668373108,-0.06963799893856049,0.036233823746442795,0.00037221526145003736
1437196003.32747602,180710,-0.0049115195870399475,0.004836682230234146,-0.7502219676971436,-0.06786862760782242,0.03644028306007385,3.959041350753978e-05
1437196003.80064797,181071,-0.0047589316964149475,0.004917152225971222,-0.7505321502685547,-0.07001353055238724,0.03531377762556076,0.0005973831284791231
1437196004.21397996,181433,-0.004940969403833151,0.005233515053987503,-0.7507491111755371,-0.0694887638092041,0.036022961139678955,6.0368543927324936e-05
1437196004.46093988,181795,-0.004779597744345665,0.005310807377099991,-0.7510550618171692,-0.07074194401502609,0.03582790866494179,-0.0003990725672338158
1437196004.86311603,182157,-0.004717538133263588,0.00545138493180275,-0.7511245012283325,-0.06923402845859528,0.035816069692373276,0.0001242041471414268
1437196005.20826387,182518,-0.005025849677622318,0.004994139075279236,-0.7516897320747375,-0.06942228972911835,0.03599200025200844,0.0010160395177081227
1437196005.45726800,182879,-0.004884751047939062,0.004835315048694611,-0.751538097858429,-0.07168033719062805,0.03585367649793625,0.0001541071105748415
1437196005.71159601,183241,-0.005219100043177605,0.005107920616865158,-0.7517548203468323,-0.07108651846647263,0.03591339662671089,0.0014283357886597514
1437196006.12281203,183603,-0.005506281740963459,0.0051927752792835236,-0.7520073056221008,-0.07163641601800919,0.035779986530542374,0.0009699381189420819
1437196006.49073601,183965,-0.005352724343538284,0.0051003023982048035,-0.7523543238639832,-0.06976619362831116,0.03566816821694374,0.0002316670143045485
1437196006.80797601,184326,-0.005629795137792826,0.005050394684076309,-0.752733051776886,-0.07165101915597916,0.0363980196416378,0.0008660341845825315
1437196007.15108800,184688,-0.005384829826653004,0.00506892055273056,-0.7527751922607422,-0.0711911991238594,0.03648975118994713,0.0012992251431569457
1437196007.73325992,185049,-0.0053949663415551186,0.005208220332860947,-0.7531139254570007,-0.07109221071004868,0.03655822202563286,0.00073279719799757
1437196008.10045195,185410,-0.0054342313669621944,0.005130209028720856,-0.7531653046607971,-0.07076612859964371,0.036014627665281296,-3.47231725754682e-05
1437196008.35352802,185771,-0.005208410322666168,0.00493062287569046,-0.75326007604599,-0.07068967074155807,0.03707049414515495,0.0008889555465430021
1437196008.76777196,186133,-0.005269067827612162,0.005043972283601761,-0.7532432079315186,-0.07077227532863617,0.03715744614601135,0.0006704651168547571
1437196009.27619195,186495,-0.005055284593254328,0.00464949756860733,-0.7535572648048401,-0.07046989351511002,0.03656451404094696,0.0006044332985766232
1437196009.59606004,186857,-0.005111321806907654,0.00437585636973381,-0.753933310508728,-0.07125625014305115,0.0366455540060997,0.0010719778947532177
1437196010.01180792,187219,-0.004936497192829847,0.004252135753631592,-0.7544410228729248,-0.07041489332914352,0.03584534302353859,0.0006378793041221797
1437196010.45050383,187581,-0.00470476970076561,0.004083670675754547,-0.7544614672660828,-0.071381576359272,0.035794731229543686,0.0017709892708808184
1437196010.78073192,187943,-0.004997179843485355,0.00393068790435791,-0.7548940181732178,-0.07117082178592682,0.03610139712691307,0.00047592964256182313
1437196011.00956392,188305,-0.004691405221819878,0.0037889257073402405,-0.7548516988754272,-0.07192619144916534,0.036349888890981674,0.0004682056314777583
1437196011.29472804,188667,-0.004481470212340355,0.004051078110933304,-0.7547581195831299,-0.07057316601276398,0.03603150323033333,0.00026344702928327024
1437196011.61288786,189028,-0.004263048525899649,0.003972359001636505,-0.7548070549964905,-0.07140031456947327,0.03583486005663872,0.0005799616919830441
1437196011.84199595,189389,-0.004014164209365845,0.003964446485042572,-0.7546525001525879,-0.07072168588638306,0.036971140652894974,0.0006117906887084246
1437196012.28921986,189751,-0.0040072426199913025,0.003936551511287689,-0.7545480132102966,-0.07165558636188507,0.0371345579624176,0.00030929208151064813
1437196012.70341587,190113,-0.003852745983749628,0.004002835601568222,-0.7549466490745544,-0.07347053289413452,0.03666144609451294,-0.0005269404500722885
1437196012.95067596,190475,-0.003992526791989803,0.004257582128047943,-0.755134642124176,-0.07175236195325851,0.036097243428230286,0.0008795855101197958
1437196013.32571197,190796,-0.003704328555613756,0.004327159374952316,-0.7550655007362366,-0.07239477336406708,0.03658429905772209,0.0001561371609568596
1437196013.74079990,191117,-0.003723517060279846,0.004171166568994522,-0.7554081082344055,-0.07228948175907135,0.03698273003101349,0.0009741061367094517
1437196014.26351190,191439,-0.0037742010317742825,0.004588145762681961,-0.7553756237030029,-0.07125352323055267,0.03676530718803406,-4.994459231966175e-05
1437196014.51031995,191760,-0.003742779139429331,0.004703104496002197,-0.7552682757377625,-0.07008951902389526,0.036797866225242615,0.0007204256253316998
1437196014.74020386,192083,-0.0037174830213189125,0.004734240472316742,-0.7554762959480286,-0.0726313665509224,0.0364282988011837,0.0013880955521017313
1437196015.00733185,192404,-0.003702564863488078,0.004629485309123993,-0.7560563683509827,-0.07229644060134888,0.036921579390764236,0.0004890912678092718
1437196015.35449982,192725,-0.0035418481566011906,0.004794750362634659,-0.7560311555862427,-0.07330707460641861,0.03648323938250542,-9.643779776524752e-05
1437196015.60360384,193047,-0.0034549024421721697,0.005026351660490036,-0.7560256123542786,-0.07175682485103607,0.03636223077774048,0.0014567443868145347
1437196016.01673985,193369,-0.0035931395832449198,0.004856385290622711,-0.7561589479446411,-0.07208840548992157,0.036819297820329666,0.0002960070560220629
1437196016.43086791,193690,-0.0037148683331906796,0.004899904131889343,-0.7562732696533203,-0.07287225872278214,0.03681526705622673,0.0013757619308307767
1437196016.67805982,194012,-0.0034071882255375385,0.005084440112113953,-0.7563280463218689,-0.07313606888055801,0.03640710189938545,0.0013188539305701852
1437196017.08042383,194334,-0.0031997121404856443,0.005070880055427551,-0.7564275860786438,-0.07256166636943817,0.036874935030937195,0.00031527760438621044
1437196017.42450786,194655,-0.0029419620987027884,0.005150683224201202,-0.7562676668167114,-0.07092444598674774,0.037368062883615494,0.0005596803966909647
1437196017.77253199,194976,-0.0026999027468264103,0.004874072968959808,-0.7560954093933105,-0.0725727453827858,0.03679841011762619,-0.0002488038153387606
1437196018.02967596,195298,-0.0024423878639936447,0.004901275038719177,-0.7560806274414062,-0.073512002825737,0.036718521267175674,0.0008504398865625262
1437196018.44274402,195621,-0.0022071083076298237,0.004694681614637375,-0.7564093470573425,-0.07264961302280426,0.036617860198020935,0.00030137188150547445
1437196018.67791200,195942,-0.0023483517579734325,0.004838384687900543,-0.7563309073448181,-0.07308993488550186,0.03628065437078476,0.00019665173022076488
1437196018.91709995,196264,-0.0024091198574751616,0.0049571506679058075,-0.7563861608505249,-0.07251916080713272,0.03674682229757309,2.177361920985277e-06
1437196019.26610804,196585,-0.002226466778665781,0.005076151341199875,-0.7564709782600403,-0.0723322257399559,0.037303220480680466,0.00019246134615968913
1437196019.50644398,196906,-0.001989715499803424,0.005234416574239731,-0.7563559412956238,-0.07201692461967468,0.03680531680583954,0.0009921413147822022
1437196019.84341598,197228,-0.0014709688257426023,0.005021568387746811,-0.7564260363578796,-0.07177259027957916,0.03679927438497543,-0.001126025803387165
1437196020.11556792,197549,-0.0015563786728307605,0.005250819027423859,-0.7564226388931274,-0.0738479495048523,0.036397118121385574,0.0006060284795239568
1437196020.36391997,197870,-0.0015403220895677805,0.005520418286323547,-0.7567628622055054,-0.07418575882911682,0.036563578993082047,0.00010164467676077038
1437196020.77801991,198191,-0.0017017943318933249,0.005300484597682953,-0.7567886114120483,-0.07314328104257584,0.036954328417778015,-0.0006304041016846895
1437196021.14998388,198513,-0.0016891377745196223,0.005438011139631271,-0.7571356296539307,-0.07363349944353104,0.0368657149374485,-9.922242315951735e-05
1437196021.40015984,198835,-0.001429359195753932,0.0054148174822330475,-0.7570910453796387,-0.07419256120920181,0.03732108697295189,0.0005868945736438036
1437196021.81420398,199156,-0.0016805913764983416,0.005338411778211594,-0.7570071816444397,-0.07240231335163116,0.03715749830007553,0.0002167015481973067
1437196022.25543594,199478,-0.0018855356611311436,0.005121905356645584,-0.7572895884513855,-0.07406693696975708,0.03726620227098465,0.0004215358931105584
1437196022.58461189,199799,-0.0022273100912570953,0.0050469450652599335,-0.7574973702430725,-0.07424286007881165,0.03675364330410957,0.0008382139494642615
1437196022.81966400,200121,-0.0024208142422139645,0.005004305392503738,-0.7574405074119568,-0.07403486222028732,0.036500994116067886,0.0011308867251500487
1437196023.05578804,200443,-0.0024184896610677242,0.004823368042707443,-0.7576713562011719,-0.07316455990076065,0.03767191246151924,0.000416804279666394
1437196023.46893597,200765,-0.0024910233914852142,0.004574671387672424,-0.7578228712081909,-0.07392460107803345,0.036738764494657516,0.0005727236857637763
1437196023.88195586,201086,-0.0022861117031425238,0.00471850112080574,-0.7580170035362244,-0.0732751414179802,0.03677308186888695,0.00022528451518155634
1437196024.29532003,201408,-0.002111411187797785,0.0042999908328056335,-0.7579841017723083,-0.07386624068021774,0.037560321390628815,-2.2087459001340903e-05
1437196024.54634404,201730,-0.002414112910628319,0.00487060472369194,-0.7579015493392944,-0.08062524348497391,0.04244421795010567,3.521174221532419e-05
1437196024.88650799,202051,-0.0016974469181150198,0.004332251846790314,-0.7576553821563721,-0.07164352387189865,0.03536601364612579,0.002580919535830617
1437196025.12353587,202373,-0.0035185515880584717,0.005581207573413849,-0.7580888867378235,-0.07805807143449783,0.04007650911808014,0.0008483635610900819
1437196025.48170805,202694,-0.003013881389051676,0.005175825208425522,-0.7581731081008911,-0.06789571791887283,0.03139638155698776,2.2530817659571767e-05
1437196025.71389985,203015,-0.0029275473207235336,0.005020365118980408,-0.7583505511283875,-0.06516671925783157,0.029443878680467606,0.001342764706350863
1437196025.95105195,203336,-0.0017019158694893122,0.004293203353881836,-0.7582811713218689,-0.0644599050283432,0.028928272426128387,-8.219673327403143e-05
1437196026.39125991,203658,-0.0010329666547477245,0.0037792064249515533,-0.7583869099617004,-0.07248523086309433,0.03434322029352188,0.0005455515929497778
1437196026.72014785,203980,-0.001034909044392407,0.003718305379152298,-0.7592402100563049,-0.06914736330509186,0.03358599916100502,0.00036585290217772126
1437196027.14449596,204301,-0.0016630502650514245,0.003914322704076767,-0.7598047256469727,-0.0799374058842659,0.04276902228593826,0.0007637804374098778
1437196027.39755988,204622,-0.0014750929549336433,0.0034864842891693115,-0.7599084973335266,-0.07359208911657333,0.03825239837169647,-0.00019875256111845374
1437196027.81173992,204944,-0.00146924564614892,0.0034547746181488037,-0.7602011561393738,-0.07350406050682068,0.03691391274333,0.00011488965537864715
1437196028.17787194,205266,-0.0014421185478568077,0.0034440383315086365,-0.7604525089263916,-0.0736311823129654,0.037607260048389435,-0.00010912411380559206
1437196028.53304005,205587,-0.0014336875174194574,0.003688458353281021,-0.760503888130188,-0.07502835988998413,0.03740723058581352,0.0009884776081889868
1437196028.78752398,205908,-0.0014185123145580292,0.003568928688764572,-0.7608484029769897,-0.07502672076225281,0.03716692328453064,0.0002837071951944381
1437196029.26037598,206270,-0.001048000529408455,0.0033944547176361084,-0.7610069513320923,-0.07331735640764236,0.03789704293012619,-0.00029817025642842054
1437196029.67257190,206631,-0.0008461492834612727,0.0035530366003513336,-0.760948121547699,-0.07492013275623322,0.0370936244726181,0.0005353111773729324
1437196030.08563995,206993,-0.0011473201448097825,0.004121527075767517,-0.7614712119102478,-0.07600591331720352,0.03741593658924103,0.0012240895302966237
1437196030.52582788,207355,-0.0013904677471145988,0.004615817219018936,-0.761673629283905,-0.07597975432872772,0.037490881979465485,-0.00017083168495446444
1437196030.85696793,207717,-0.0013888772809877992,0.004594024270772934,-0.7617100477218628,-0.07377628237009048,0.03747982159256935,0.0005010595778003335
1437196031.08708000,208079,-0.00127066345885396,0.004583582282066345,-0.7621080875396729,-0.07396626472473145,0.037434060126543045,5.1526476454455405e-06
1437196031.43931985,208440,-0.0014434102922677994,0.0042686425149440765,-0.7626088261604309,-0.07333752512931824,0.03742722049355507,0.0004674469237215817
1437196031.68716383,208842,-0.0012405691668391228,0.0042982809245586395,-0.7628352642059326,-0.07561147958040237,0.03773920610547066,0.0005285983206704259
1437196031.91636801,209245,-0.0013372402172535658,0.004462748765945435,-0.7633234262466431,-0.07448037713766098,0.038316093385219574,0.0012689664727076888
1437196032.18656802,209686,-0.0009754146449267864,0.004409808665513992,-0.7636145353317261,-0.07620291411876678,0.03726357966661453,-0.0001241533609572798
1437196032.57294393,210128,-0.0008786125108599663,0.004560966044664383,-0.7635319232940674,-0.07386927306652069,0.037363871932029724,0.0005205783527344465
1437196033.01297188,210571,-0.0007148890290409327,0.004609551280736923,-0.7634859681129456,-0.07463407516479492,0.03770335763692856,0.0007231075433082879
1437196033.42613602,210973,-0.0002376488409936428,0.00474223867058754,-0.7630531787872314,-0.07509908080101013,0.03748323768377304,0.0010627430165186524
1437196033.85117602,211376,-0.00031539471819996834,0.004973888397216797,-0.7632238864898682,-0.07519248872995377,0.03808336332440376,0.0012742928229272366
1437196034.43236399,211738,-0.00029302865732461214,0.005394302308559418,-0.7635791301727295,-0.07438454777002335,0.03763188049197197,0.00044228104525245726
1437196034.84595990,212099,-8.582184091210365e-05,0.005354449152946472,-0.7636913061141968,-0.07547228038311005,0.03785058856010437,0.0004892896977253258
1437196035.35399985,212461,-4.62366733700037e-05,0.004726391285657883,-0.7638040781021118,-0.07521964609622955,0.03753422945737839,-0.00024813428171910346
1437196035.67389202,212822,0.0003265412524342537,0.0049742236733436584,-0.7639600038528442,-0.07530583441257477,0.03746505826711655,0.0006394448573701084
1437196036.08824396,213184,0.00019104243256151676,0.0048775337636470795,-0.7642084360122681,-0.07502776384353638,0.037222497165203094,-3.3898120932462916e-07
1437196036.36621189,213546,6.755744107067585e-05,0.004548121243715286,-0.7643969655036926,-0.07629944384098053,0.03711707144975662,0.00015424106095451862
1437196036.63344383,213908,0.0003628309350460768,0.004109971225261688,-0.764510989189148,-0.07341431081295013,0.03744005784392357,0.0003916379646398127
1437196036.95853186,214269,0.0001501929946243763,0.003931697458028793,-0.7645651698112488,-0.07555346190929413,0.03741523623466492,0.0003606072277761996
1437196037.27663994,214630,0.00015612877905368805,0.003854263573884964,-0.764717698097229,-0.07530127465724945,0.03770793229341507,0.0016555737238377333
1437196037.50876784,214991,-4.857173189520836e-05,0.0038833096623420715,-0.7650933861732483,-0.0746060311794281,0.03722831606864929,0.0005108154728077352
1437196037.85583186,215353,0.0002693342976272106,0.0038657039403915405,-0.7650229930877686,-0.07467711716890335,0.0377093181014061,0.0007215983350761235
1437196038.11906791,215674,-6.11618161201477e-05,0.0038976743817329407,-0.7653841972351074,-0.07675325125455856,0.03772374242544174,0.0004806481010746211
1437196038.51728392,215995,0.00012356112711131573,0.003757275640964508,-0.7654857635498047,-0.07476827502250671,0.03755863755941391,0.0009707275894470513
1437196038.77524805,216317,0.0001577294897288084,0.0036842375993728638,-0.7656611800193787,-0.07545667141675949,0.03820785880088806,0.001200402621179819
1437196039.19539189,216639,-9.07103531062603e-05,0.0037763789296150208,-0.7659234404563904,-0.07765566557645798,0.03815454617142677,0.0003116191364824772
1437196039.61008787,216919,9.077601134777069e-05,0.003501851111650467,-0.7662582397460938,-0.07517294585704803,0.037489816546440125,0.000795332423876971
1437196040.02259994,217200,-9.518442675471306e-05,0.003835901618003845,-0.7664130330085754,-0.0760374367237091,0.03780122101306915,2.9253117190819466e-06
1437196040.47803187,217482,7.355585694313049e-06,0.0036347024142742157,-0.7664766311645508,-0.07536763697862625,0.037429653108119965,0.0004518314672168344
1437196040.79612803,217764,0.000174820888787508,0.0037516579031944275,-0.7666420340538025,-0.07622791826725006,0.037779372185468674,0.0013030811678618193
1437196041.03448391,218045,0.0003203935921192169,0.0036010518670082092,-0.766888439655304,-0.07470902800559998,0.0378943607211113,0.0005965276504866779
1437196041.30521989,218366,0.0003504715859889984,0.003717944025993347,-0.7670915722846985,-0.07493405789136887,0.037090402096509933,0.0011594770476222038
1437196041.58433986,218687,0.0002607146743685007,0.0037386715412139893,-0.767062783241272,-0.07371429353952408,0.03754577413201332,0.0009920961456373334
1437196041.83268785,219008,0.00046543730422854424,0.004132822155952454,-0.7670114040374756,-0.07607100158929825,0.037659186869859695,0.0013054466107860208
1437196042.09573984,219371,0.00031694909557700157,0.004317101091146469,-0.7668539881706238,-0.07642308622598648,0.03745315596461296,0.000496133987326175
1437196042.50869584,219733,0.00020254147239029408,0.004170853644609451,-0.7671547532081604,-0.0758105143904686,0.03763045743107796,0.0008231454994529486
1437196042.92109203,220094,0.00012659281492233276,0.0040356069803237915,-0.7673487663269043,-0.0756453201174736,0.038280487060546875,0.0005487260059453547
1437196043.36214805,220456,0.00017268513329327106,0.004000876098871231,-0.7675465941429138,-0.07671854645013809,0.0379239059984684,0.00027921301079913974
1437196043.69019604,220818,0.0002027740702033043,0.0039823539555072784,-0.7678273320198059,-0.07634779065847397,0.03810184448957443,-6.31255898042582e-05
1437196043.95145202,221179,0.0007068554405122995,0.003983315080404282,-0.7679795026779175,-0.07632561028003693,0.0380537211894989,0.00018378511595074087
1437196044.19151592,221581,0.0008534907829016447,0.004463803023099899,-0.7679020762443542,-0.07528707385063171,0.03764980658888817,0.0016703028231859207
1437196044.61865187,221983,0.0010368595831096172,0.004312049597501755,-0.7681519389152527,-0.07603307068347931,0.03831303119659424,0.0012477877316996455
1437196044.85782790,222386,0.0010285153985023499,0.004006031900644302,-0.7687257528305054,-0.07706646621227264,0.038356564939022064,-4.568832707718684e-07
1437196045.22707605,222787,0.0008747566025704145,0.004088785499334335,-0.7689670920372009,-0.0790770873427391,0.037827882915735245,-0.0002018434024648741
1437196045.64018393,223188,0.0012770998291671276,0.004299364984035492,-0.7690444588661194,-0.0753253847360611,0.03725387156009674,0.0011425205739215016
1437196046.06633997,223589,0.0012223764788359404,0.004477459937334061,-0.769482433795929,-0.0763956606388092,0.038370877504348755,0.0009190579876303673
1437196046.47944403,223951,0.0012506288476288319,0.0048697516322135925,-0.7696316838264465,-0.07462804764509201,0.03769754245877266,-5.744864756707102e-05
1437196046.88064790,224313,0.0013022222556173801,0.005111996084451675,-0.7697035074234009,-0.07541943341493607,0.03801475837826729,0.0008449876913800836
1437196047.22573590,224675,0.0013687205500900745,0.00520305335521698,-0.7700461745262146,-0.074643574655056,0.03799058496952057,-0.0001252087822649628
1437196047.47697186,225035,0.0015262046363204718,0.005222715437412262,-0.7703797221183777,-0.07659389078617096,0.03813429921865463,0.00024190502881538123
1437196047.92598391,225397,0.0016081915237009525,0.0053860098123550415,-0.7705980539321899,-0.0771128460764885,0.03744940087199211,-0.0003999503969680518
1437196048.27025604,225718,0.0016457440797239542,0.005566611886024475,-0.7709017395973206,-0.07628936320543289,0.03818422555923462,-0.0005856386269442737
1437196048.50933194,226039,0.0017318443860858679,0.005579926073551178,-0.7710847854614258,-0.07637840509414673,0.03846462070941925,0.0012274335604161024
1437196048.92343187,226361,0.0019019325263798237,0.005460686981678009,-0.7712278366088867,-0.0754285380244255,0.03790559619665146,0.0002588282513897866
1437196049.17465591,226642,0.0019052778370678425,0.005388986319303513,-0.7714316248893738,-0.07504864782094955,0.03852475807070732,0.0009639198542572558
1437196049.54077196,226924,0.002208960708230734,0.005686916410923004,-0.7716161012649536,-0.07540640980005264,0.03803987428545952,0.0014250377425923944
1437196049.77996397,227205,0.0021474831737577915,0.005427509546279907,-0.7715154886245728,-0.07682144641876221,0.038079310208559036,0.00015046956832520664
1437196050.10996389,227486,0.002137288451194763,0.005294155329465866,-0.7714634537696838,-0.07553353905677795,0.039012834429740906,0.0012474381364881992
1437196050.52305603,227767,0.0023991884663701057,0.005328290164470673,-0.7712785005569458,-0.07717303186655045,0.03736697509884834,0.001603504759259522
1437196050.75622797,228048,0.002202517818659544,0.005572207272052765,-0.7713598012924194,-0.07785672694444656,0.038712840527296066,-2.073585164907854e-05
1437196050.99325585,228330,0.0022089313715696335,0.00530846044421196,-0.7715149521827698,-0.07508982717990875,0.03729808330535889,-0.0001207734239869751
1437196051.43256402,228611,0.00240833917632699,0.00519891083240509,-0.7710980176925659,-0.07567957788705826,0.037260010838508606,0.00041704418254084885
1437196051.76160789,228893,0.0024311458691954613,0.005218625068664551,-0.7712764739990234,-0.07743042707443237,0.03771882504224777,-8.131686627166346e-05
1437196051.99687982,229175,0.0024179634638130665,0.005272477865219116,-0.771242618560791,-0.07708754390478134,0.03877300024032593,-0.0010986581910401583
1437196052.34387183,229456,0.0023568756878376007,0.005254711955785751,-0.7714741230010986,-0.07571104913949966,0.0378701388835907,-0.00015581271145492792
1437196052.59193993,229737,0.002573197241872549,0.005004916340112686,-0.7716007232666016,-0.07686926424503326,0.037671465426683426,0.000220946385525167
1437196052.82411194,230017,0.002710777334868908,0.005013495683670044,-0.7715700268745422,-0.07602142542600632,0.0383751280605793,0.000733463151846081
1437196053.06123185,230339,0.0027388017624616623,0.004882320761680603,-0.7711083889007568,-0.07480446994304657,0.03772765025496483,0.00020436002523638308
1437196053.47629189,230660,0.0024731261655688286,0.004596181213855743,-0.7718110680580139,-0.07772203534841537,0.03771240636706352,0.0008580639841966331
1437196053.88958383,230983,0.0027945367619395256,0.004572026431560516,-0.7719522714614868,-0.07606290280818939,0.038094330579042435,0.0003255638002883643
1437196054.40921593,231304,0.0028457329608500004,0.004501480609178543,-0.771935224533081,-0.07680830359458923,0.03748108074069023,0.00077350705396384
1437196054.71894383,231626,0.0031015160493552685,0.0045072175562381744,-0.772006630897522,-0.07716882228851318,0.038326989859342575,0.00028856302378699183
1437196055.15732384,231947,0.0030840719118714333,0.0046126097440719604,-0.7721109986305237,-0.07535126060247421,0.03807123005390167,0.0007606387371197343
1437196055.50425196,232308,0.003219621255993843,0.00473298504948616,-0.7721055746078491,-0.07688302546739578,0.03879542276263237,0.0010089530842378736
1437196055.75333595,232670,0.0034225406125187874,0.004711586982011795,-0.7722035050392151,-0.07676952332258224,0.03823106735944748,-0.00015814891958143562
1437196056.16646791,233032,0.003526291809976101,0.004617501050233841,-0.772267758846283,-0.07729598134756088,0.038124632090330124,0.0006829870981164277
1437196056.58065605,233394,0.0037673846818506718,0.004449639469385147,-0.7724648118019104,-0.07692050188779831,0.037654709070920944,0.0004902338259853423
1437196056.99371195,233876,0.0035308650694787502,0.0044426098465919495,-0.7728627920150757,-0.07805392891168594,0.038440607488155365,0.0004819342866539955
1437196057.24605989,234358,0.0034968871623277664,0.004127800464630127,-0.7728707790374756,-0.07552193850278854,0.037854019552469254,0.0003218438650947064
1437196057.51797986,234880,0.003536118194460869,0.003875192254781723,-0.772874116897583,-0.07626646012067795,0.03734826296567917,-0.0004622279084287584
1437196057.86116004,235403,0.0037534041330218315,0.0035509690642356873,-0.7729735970497131,-0.07770517468452454,0.037909045815467834,6.325992580968887e-05
1437196058.44243193,235845,0.003695577383041382,0.003715015947818756,-0.7729550004005432,-0.07811795920133591,0.0385737381875515,-5.785313624073751e-05
1437196058.85666394,236287,0.0035724379122257233,0.004131749272346497,-0.7732415795326233,-0.07779640704393387,0.037855423986911774,-0.0004324753535911441
1437196059.22574401,236729,0.0037002479657530785,0.004061538726091385,-0.7733267545700073,-0.07597580552101135,0.03832435607910156,0.00010341740562580526
1437196059.68495989,237171,0.0035666688345372677,0.004273679107427597,-0.7734085917472839,-0.07581658661365509,0.037763115018606186,0.00040519688627682626
1437196060.05718803,237613,0.003459727391600609,0.004626292735338211,-0.7734798192977905,-0.07721984386444092,0.03823329135775566,3.271635068813339e-05
1437196060.54022002,238055,0.003443898167461157,0.004372153431177139,-0.7740525007247925,-0.07791908085346222,0.038643728941679,0.0010984715772792697
1437196060.96557188,238458,0.00302213616669178,0.004598882049322128,-0.7741166949272156,-0.07765843719244003,0.03840436041355133,0.00029495879425667226
1437196061.33960390,238820,0.0033838157542049885,0.004701796919107437,-0.7737966179847717,-0.0771230086684227,0.038198381662368774,0.0007644029683433473
1437196061.75476003,239181,0.003304518759250641,0.004770949482917786,-0.77397620677948,-0.07941557466983795,0.038605351001024246,0.0007511414005421102
1437196062.16791582,239543,0.0035006417892873287,0.004963774234056473,-0.7740817070007324,-0.07719993591308594,0.03829715773463249,0.0006897883140482008
1437196062.58214402,239904,0.003434309270232916,0.0049148984253406525,-0.7745169401168823,-0.07719765603542328,0.038690268993377686,0.001843174104578793
1437196062.99133587,240266,0.0035007139667868614,0.00501289963722229,-0.7746497988700867,-0.07867452502250671,0.038724806159734726,0.0007044142694212496
1437196063.23145604,240628,0.0037458264268934727,0.005023621022701263,-0.774552047252655,-0.07830548286437988,0.03887026384472847,0.00019556624465622008
1437196063.58164001,240990,0.0036162021569907665,0.005014725029468536,-0.7748030424118042,-0.07676831632852554,0.03837921470403671,-8.933687786338851e-05
1437196063.85188794,241351,0.003767952788621187,0.0051878392696380615,-0.7744672894477844,-0.07769807428121567,0.03820042312145233,0.0004619545070454478
1437196064.18244791,241713,0.0033735097385942936,0.004853136837482452,-0.7747445106506348,-0.07833840698003769,0.03875226154923439,0.0007584317354485393
1437196064.65199590,242075,0.0033536902628839016,0.004807367920875549,-0.7748976349830627,-0.07674846053123474,0.038053806871175766,0.0008007350261323154
1437196065.06735587,242438,0.0032826093956828117,0.004425492137670517,-0.7751274704933167,-0.07780494540929794,0.03886229544878006,0.0005434434278868139
