timestamp,GLOBAL_POSITION_INT.time_boot_ms,GLOBAL_POSITION_INT.lat,GLOBAL_POSITION_INT.lon,GLOBAL_POSITION_INT.alt,GLOBAL_POSITION_INT.relative_alt,GLOBAL_POSITION_INT.vx,GLOBAL_POSITION_INT.vy,GLOBAL_POSITION_INT.vz,GLOBAL_POSITION_INT.hdg
1437195928.00607991,103632,-352080891,1490435193,1930,1930,-40,-26,2,31806
1437195928.25319600,104234,-352080883,1490435183,1920,1920,-39,-26,2,31807
1437195928.65944004,105037,-352080878,1490435186,1910,1910,-39,-26,2,31811
1437195928.91645598,106040,-352080892,1490435200,1920,1920,-38,-26,1,31811
1437195929.58975196,107025,-352080897,1490435208,1890,1890,-38,-26,0,31813
1437195930.51510382,108030,-352080916,1490435214,1850,1850,-37,-26,0,31815
1437195931.50151205,108834,-352080945,1490435223,1840,1840,-39,-27,0,31817
1437195932.23280787,109637,-352080951,1490435225,1830,1830,-37,-26,0,31818
1437195932.85801196,110441,-352080947,1490435219,1800,1800,-38,-26,-1,31818
1437195933.77950788,111224,-352080950,1490435215,1780,1780,-38,-27,-1,31816
1437195934.34273195,111827,-352080951,1490435200,1750,1750,-37,-26,-1,31815
1437195935.01310396,112429,-352080953,1490435195,1740,1740,-36,-26,0,31813
1437195935.63315201,113031,-352080938,1490435187,1740,1740,-36,-26,0,31813
1437195936.06336403,113634,-352080915,1490435181,1760,1760,-36,-26,0,31815
1437195936.66662002,114036,-352080911,1490435172,1770,1770,-36,-26,0,31814
1437195937.09575987,114438,-352080911,1490435156,1760,1760,-35,-25,0,31814
1437195937.50999188,115042,-352080922,1490435157,1770,1770,-35,-25,0,31814
1437195937.96005201,115423,-352080917,1490435149,1780,1780,-35,-26,1,31815
1437195938.36615992,115825,-352080929,1490435141,1810,1810,-35,-26,2,31814
1437195938.64643598,116227,-352080941,1490435135,1820,1820,-35,-27,2,31813
1437195939.14861202,116630,-352080928,1490435130,1830,1830,-34,-26,2,31814
1437195939.43316388,116831,-352080924,1490435128,1820,1820,-35,-27,2,31816
1437195939.81490803,117233,-352080930,1490435132,1800,1800,-34,-26,1,31815
1437195940.13797593,117634,-352080945,1490435134,1800,1800,-35,-26,1,31815
1437195940.59714794,118036,-352080944,1490435137,1800,1800,-35,-26,2,31814
1437195940.82021189,118238,-352080940,1490435132,1800,1800,-36,-27,1,31814
1437195941.21841598,118620,-352080924,1490435130,1800,1800,-35,-26,2,31814
1437195941.63191199,119022,-352080925,1490435123,1800,1800,-34,-26,2,31812
1437195941.95059586,119223,-352080940,1490435121,1790,1790,-34,-26,2,31812
1437195942.46497202,119624,-352080947,1490435125,1780,1780,-35,-27,1,31811
1437195942.96820402,119825,-352080951,1490435127,1800,1800,-35,-27,1,31813
1437195943.29427195,120246,-352080962,1490435126,1800,1800,-34,-26,1,31811
1437195943.70930004,120629,-352080948,1490435122,1800,1800,-33,-26,2,31810
1437195944.07056403,120830,-352080948,1490435124,1820,1820,-35,-26,2,31809
1437195944.32477593,121232,-352080964,1490435127,1830,1830,-34,-25,3,31808
1437195944.73822403,121633,-352080944,1490435137,1830,1830,-34,-25,3,31809
1437195945.02213597,122035,-352080955,1490435136,1830,1830,-34,-25,2,31811
1437195945.25707197,122437,-352080985,1490435128,1830,1830,-34,-25,2,31811
1437195945.51217604,122840,-352080993,1490435124,1810,1810,-34,-25,2,31813
1437195945.79018402,123242,-352081015,1490435120,1800,1800,-33,-25,2,31814
1437195946.20345187,123824,-352081038,1490435116,1820,1820,-34,-25,3,31816
1437195946.64621592,124225,-352081040,1490435119,1820,1820,-33,-25,2,31815
1437195947.06053185,124627,-352081044,1490435116,1830,1830,-33,-25,2,31813
1437195947.47331595,125029,-352081052,1490435116,1820,1820,-33,-25,2,31814
1437195947.85624385,125230,-352081061,1490435117,1820,1820,-31,-23,2,31814
1437195948.30741596,125632,-352081062,1490435121,1810,1810,-32,-24,1,31815
1437195948.88755989,126033,-352081065,1490435121,1810,1810,-32,-24,2,31817
1437195949.23876405,126434,-352081074,1490435121,1790,1790,-30,-23,1,31816
1437195949.47990394,126836,-352081074,1490435119,1760,1760,-31,-24,0,31816
1437195949.71993995,127037,-352081093,1490435115,1750,1750,-30,-23,0,31816
1437195950.06526399,127439,-352081096,1490435113,1740,1740,-30,-23,0,31817
1437195950.33420396,127842,-352081118,1490435115,1720,1720,-30,-23,0,31817
1437195950.74843597,128223,-352081134,1490435115,1710,1710,-29,-23,0,31817
1437195951.16056395,128443,-352081133,1490435118,1710,1710,-29,-23,0,31816
1437195951.57581186,128845,-352081142,1490435126,1710,1710,-29,-23,0,31815
1437195951.92889190,129227,-352081159,1490435133,1690,1690,-30,-23,0,31814
1437195952.20393205,129428,-352081153,1490435137,1690,1690,-29,-23,0,31815
1437195952.60421586,129831,-352081143,1490435142,1710,1710,-28,-22,0,31814
1437195952.86627603,130032,-352081139,1490435143,1700,1700,-28,-22,0,31814
1437195953.12147999,130433,-352081130,1490435148,1690,1690,-28,-22,0,31815
1437195953.44851995,130835,-352081109,1490435162,1700,1700,-29,-22,0,31815
1437195953.79577184,131036,-352081107,1490435168,1680,1680,-28,-22,0,31816
1437195954.20392394,131439,-352081121,1490435174,1680,1680,-27,-21,0,31816
1437195954.45293999,131640,-352081120,1490435177,1680,1680,-28,-21,0,31815
1437195954.69009995,132042,-352081108,1490435183,1700,1700,-28,-22,0,31813
1437195955.04417992,132423,-352081096,1490435193,1720,1720,-29,-23,1,31813
1437195955.30329990,132624,-352081087,1490435196,1740,1740,-29,-22,2,31813
1437195955.71761584,133027,-352081095,1490435200,1740,1740,-28,-22,2,31812
1437195956.07438397,133429,-352081098,1490435204,1760,1760,-29,-23,3,31812
1437195956.31679201,133629,-352081086,1490435208,1760,1760,-29,-23,3,31813
1437195956.54784799,134031,-352081087,1490435209,1760,1760,-29,-23,2,31812
1437195956.90208387,134232,-352081087,1490435214,1750,1750,-29,-23,2,31811
1437195957.16809201,134633,-352081061,1490435211,1750,1750,-28,-23,2,31811
1437195957.57520795,135035,-352081067,1490435209,1760,1760,-28,-23,2,31811
1437195957.98937988,135236,-352081077,1490435215,1760,1760,-28,-23,2,31812
1437195958.30887198,135638,-352081088,1490435220,1780,1780,-29,-23,2,31811
1437195958.65755200,135840,-352081074,1490435221,1770,1770,-29,-23,2,31810
1437195959.07281184,136241,-352081069,1490435220,1760,1760,-28,-23,1,31809
1437195959.38398790,136643,-352081069,1490435224,1770,1770,-28,-23,1,31810
1437195959.63322783,136845,-352081056,1490435217,1760,1760,-28,-24,1,31810
1437195959.87015200,137227,-352081045,1490435211,1750,1750,-28,-25,0,31809
1437195960.26934791,137428,-352081039,1490435208,1720,1720,-28,-24,0,31808
1437195960.68340397,137830,-352081031,1490435209,1710,1710,-27,-23,-1,31809
1437195961.09671998,138232,-352081037,1490435204,1690,1690,-26,-23,-1,31809
1437195961.34990001,138433,-352081034,1490435199,1690,1690,-27,-23,0,31809
1437195961.73299599,138836,-352081035,1490435195,1690,1690,-27,-24,0,31809
1437195962.01909590,139038,-352081037,1490435192,1690,1690,-26,-23,0,31808
1437195962.34631205,139419,-352081016,1490435182,1700,1700,-25,-23,0,31808
1437195962.70234799,139821,-352081017,1490435185,1690,1690,-26,-23,0,31808
1437195963.11556792,140223,-352081008,1490435184,1690,1690,-26,-23,0,31807
1437195963.35078382,140625,-352081001,1490435185,1680,1680,-26,-23,0,31807
1437195963.59578800,140826,-352080987,1490435185,1690,1690,-26,-23,0,31808
1437195964.08895588,141228,-352080970,1490435183,1680,1680,-25,-23,0,31805
1437195964.42423201,141630,-352080982,1490435187,1680,1680,-26,-23,0,31805
1437195964.72973990,142032,-352080978,1490435195,1710,1710,-25,-22,1,31802
1437195965.07748795,142434,-352080970,1490435194,1700,1700,-25,-22,0,31803
1437195965.39163184,142635,-352080964,1490435193,1740,1740,-25,-22,2,31803
1437195965.63759589,143037,-352080959,1490435194,1740,1740,-25,-21,2,31803
1437195966.16097188,143419,-352080960,1490435198,1750,1750,-26,-22,2,31804
1437195966.49497199,143821,-352080958,1490435201,1720,1720,-25,-21,1,31804
1437195966.89324784,144243,-352080952,1490435204,1710,1710,-25,-21,0,31805
1437195967.30732393,144424,-352080937,1490435202,1710,1710,-25,-22,0,31803
1437195967.72156787,144826,-352080928,1490435207,1700,1700,-25,-21,0,31802
1437195967.97473598,145229,-352080940,1490435218,1700,1700,-26,-22,0,31801
1437195968.23968387,145630,-352080922,1490435217,1690,1690,-26,-22,0,31799
1437195968.49499202,146033,-352080898,1490435216,1680,1680,-27,-22,0,31801
1437195968.97502804,146234,-352080901,1490435213,1690,1690,-26,-22,1,31801
1437195969.32615995,146635,-352080901,1490435209,1680,1680,-26,-21,0,31801
1437195969.59349990,147038,-352080887,1490435202,1700,1700,-26,-21,1,31802
1437195969.91136384,147440,-352080884,1490435201,1690,1690,-25,-21,0,31801
1437195970.36263990,147822,-352080881,1490435206,1680,1680,-25,-21,0,31801
1437195970.63572788,148224,-352080881,1490435205,1690,1690,-25,-21,0,31799
1437195971.04684401,148425,-352080879,1490435209,1680,1680,-24,-21,0,31799
1437195971.39813185,148827,-352080880,1490435210,1700,1700,-23,-21,1,31796
1437195971.64210796,149028,-352080886,1490435213,1710,1710,-23,-21,1,31795
1437195972.07137990,149430,-352080894,1490435220,1740,1740,-23,-21,2,31795
1437195972.33143997,149832,-352080889,1490435220,1750,1750,-24,-21,2,31795
1437195972.73777199,150033,-352080896,1490435222,1760,1760,-23,-21,2,31794
1437195973.05385590,150435,-352080905,1490435226,1770,1770,-22,-20,3,31793
1437195973.29680800,150636,-352080902,1490435231,1770,1770,-22,-20,3,31793
1437195973.56508803,151038,-352080906,1490435229,1760,1760,-23,-20,2,31793
1437195973.87912393,151440,-352080901,1490435228,1760,1760,-22,-20,2,31793
1437195974.23419595,151641,-352080894,1490435228,1790,1790,-22,-20,3,31792
1437195974.64946795,152022,-352080909,1490435229,1810,1810,-22,-20,4,31791
1437195974.91554785,152223,-352080914,1490435232,1840,1840,-22,-19,4,31789
1437195975.18969584,152424,-352080918,1490435233,1840,1840,-22,-19,3,31789
1437195975.49477983,152826,-352080913,1490435233,1840,1840,-22,-20,3,31787
1437195975.74266386,153028,-352080917,1490435236,1840,1840,-22,-19,3,31787
1437195976.15520382,153429,-352080915,1490435241,1870,1870,-21,-19,4,31786
1437195976.39501595,153631,-352080895,1490435237,1880,1880,-20,-19,3,31785
1437195976.63587189,153832,-352080895,1490435235,1880,1880,-21,-19,3,31784
1437195977.04641604,154233,-352080889,1490435240,1900,1900,-20,-20,4,31783
1437195977.40079594,154434,-352080886,1490435241,1920,1920,-19,-20,4,31783
1437195977.63480401,154835,-352080885,1490435241,1930,1930,-19,-20,4,31781
1437195977.87985182,155036,-352080884,1490435244,1940,1940,-18,-19,4,31782
1437195978.27589202,155237,-352080876,1490435247,1940,1940,-18,-20,4,31781
1437195978.50404000,155640,-352080863,1490435249,1940,1940,-18,-20,3,31781
1437195978.84564805,155820,-352080866,1490435250,1930,1930,-18,-20,2,31781
1437195979.25849199,156242,-352080853,1490435256,1910,1910,-17,-19,1,31782
1437195979.49759603,156623,-352080849,1490435264,1880,1880,-17,-19,1,31784
1437195979.82367182,156824,-352080856,1490435264,1870,1870,-18,-19,0,31782
1437195980.09067202,157227,-352080870,1490435260,1860,1860,-18,-19,0,31781
1437195980.36774397,157629,-352080867,1490435261,1850,1850,-17,-19,0,31780
1437195980.71196389,158031,-352080873,1490435263,1820,1820,-18,-19,-1,31779
1437195980.95626402,158433,-352080888,1490435275,1820,1820,-17,-19,0,31777
1437195981.39032388,158633,-352080898,1490435279,1800,1800,-18,-19,-1,31778
1437195981.79940391,159036,-352080898,1490435282,1780,1780,-18,-19,-2,31776
1437195982.22222805,159419,-352080891,1490435277,1770,1770,-18,-18,-2,31776
1437195982.62776804,159821,-352080896,1490435272,1770,1770,-19,-19,-2,31776
1437195982.94690800,160222,-352080909,1490435278,1760,1760,-18,-18,-2,31773
1437195983.22505999,160624,-352080900,1490435279,1760,1760,-19,-18,-1,31772
1437195983.46917200,160825,-352080904,1490435277,1770,1770,-19,-17,0,31770
1437195983.75791597,161227,-352080914,1490435280,1760,1760,-19,-17,-2,31768
1437195984.12933993,161629,-352080927,1490435273,1760,1760,-19,-17,-1,31765
1437195984.53462386,162030,-352080930,1490435261,1770,1770,-19,-17,0,31763
1437195984.90382004,162231,-352080929,1490435260,1760,1760,-20,-17,-1,31762
1437195985.26498389,162633,-352080930,1490435255,1740,1740,-19,-17,-1,31762
1437195985.57608795,163036,-352080932,1490435255,1730,1730,-19,-16,-1,31761
1437195986.14539599,163236,-352080940,1490435253,1720,1720,-19,-17,-2,31761
1437195986.39858794,163639,-352080948,1490435251,1730,1730,-19,-17,-1,31760
1437195986.78257990,163820,-352080941,1490435248,1740,1740,-19,-17,-1,31759
1437195987.12792397,164242,-352080938,1490435242,1740,1740,-19,-17,-1,31758
1437195987.39385200,164623,-352080947,1490435233,1740,1740,-18,-17,0,31757
1437195987.80218005,164824,-352080950,1490435229,1750,1750,-19,-17,0,31758
1437195988.16912794,165227,-352080950,1490435223,1750,1750,-19,-18,0,31756
1437195988.42328000,165628,-352080946,1490435222,1760,1760,-18,-18,0,31756
1437195988.83749604,165829,-352080943,1490435217,1770,1770,-18,-17,1,31753
1437195989.12157583,166231,-352080954,1490435212,1770,1770,-17,-17,1,31753
1437195989.35676789,166432,-352080957,1490435208,1750,1750,-17,-17,0,31751
1437195989.60987592,166834,-352080959,1490435200,1750,1750,-17,-17,0,31750
1437195989.85781193,167236,-352080976,1490435200,1760,1760,-16,-16,1,31746
1437195990.18492794,167638,-352080975,1490435197,1750,1750,-16,-17,0,31746
1437195990.44511604,167819,-352080992,1490435192,1760,1760,-16,-16,0,31747
1437195990.91030002,168242,-352081011,1490435187,1760,1760,-16,-16,0,31746
1437195991.27154398,168624,-352081008,1490435179,1760,1760,-17,-16,1,31745
1437195991.53259587,169027,-352081006,1490435171,1780,1780,-16,-15,1,31744
1437195991.94677591,169429,-352081009,1490435164,1770,1770,-16,-16,1,31744
1437195992.30790401,169629,-352081008,1490435160,1760,1760,-15,-15,1,31741
1437195992.57307196,170032,-352081020,1490435151,1740,1740,-15,-16,0,31740
1437195992.98021984,170434,-352081025,1490435149,1710,1710,-14,-15,0,31739
1437195993.39448404,170635,-352081027,1490435146,1680,1680,-14,-16,-2,31738
1437195993.81554389,171037,-352081028,1490435141,1650,1650,-13,-16,-2,31737
1437195994.12864399,171439,-352081029,1490435134,1630,1630,-13,-16,-3,31737
1437195994.47775984,171640,-352081030,1490435130,1610,1610,-13,-16,-3,31736
1437195994.71490383,172042,-352081047,1490435120,1590,1590,-13,-16,-4,31735
1437195994.95012784,172424,-352081042,1490435117,1590,1590,-13,-16,-4,31735
1437195995.25397992,172624,-352081053,1490435104,1580,1580,-13,-16,-4,31734
1437195995.48516393,173026,-352081065,1490435097,1580,1580,-13,-16,-3,31733
1437195995.83146405,173227,-352081074,1490435095,1570,1570,-13,-16,-3,31733
1437195996.10548782,173630,-352081068,1490435094,1560,1560,-12,-15,-3,31733
1437195996.45268393,174032,-352081075,1490435093,1550,1550,-13,-16,-3,31730
1437195996.75665593,174233,-352081067,1490435083,1540,1540,-13,-16,-2,31729
1437195997.13984799,174634,-352081072,1490435082,1530,1530,-13,-16,-2,31729
1437195997.48608398,174835,-352081075,1490435078,1500,1500,-13,-15,-3,31728
1437195997.73609591,175237,-352081061,1490435074,1490,1490,-13,-14,-3,31725
1437195998.15940404,175639,-352081056,1490435070,1490,1490,-13,-14,-3,31725
1437195998.57373595,175840,-352081026,1490435068,1490,1490,-13,-14,-3,31723
1437195998.99361205,176041,-352081019,1490435066,1480,1480,-13,-14,-3,31722
1437195999.28784800,176443,-352081006,1490435070,1480,1480,-14,-14,-2,31720
1437195999.55593991,176623,-352081002,1490435069,1500,1500,-13,-14,-1,31719
1437195999.82187200,177025,-352080990,1490435067,1500,1500,-13,-13,-1,31717
1437196000.24021196,177226,-352080988,1490435065,1500,1500,-13,-13,-1,31717
1437196000.59127998,177427,-352080989,1490435065,1500,1500,-13,-13,0,31717
1437196000.83454394,177830,-352080988,1490435064,1500,1500,-13,-13,-1,31716
1437196001.17061996,178232,-352080978,1490435054,1500,1500,-12,-13,-1,31714
1437196001.41567183,178433,-352080987,1490435052,1500,1500,-12,-13,0,31711
1437196001.65590000,178835,-352081003,1490435048,1510,1510,-12,-13,0,31709
1437196001.90100002,179237,-352081011,1490435043,1510,1510,-11,-13,0,31707
1437196002.25401187,179438,-352081013,1490435040,1500,1500,-11,-13,0,31703
1437196002.51202798,179840,-352081010,1490435024,1480,1480,-10,-13,0,31702
1437196002.92630005,180242,-352080990,1490435024,1480,1480,-10,-13,-1,31702
1437196003.28248787,180624,-352080996,1490435023,1470,1470,-10,-13,-1,31702
1437196003.59365201,181026,-352080989,1490435011,1460,1460,-10,-12,-1,31700
1437196004.16280389,181428,-352080987,1490435008,1440,1440,-11,-13,-2,31699
1437196004.41506791,181629,-352080986,1490435008,1430,1430,-11,-13,-2,31697
1437196004.79906797,182030,-352080989,1490435005,1410,1410,-11,-13,-2,31697
1437196005.14527988,182432,-352080990,1490435006,1410,1410,-12,-13,-2,31694
1437196005.41932797,182833,-352080979,1490435008,1400,1400,-12,-13,-2,31695
1437196005.66543603,183235,-352080970,1490435007,1380,1380,-12,-13,-2,31693
1437196006.07874393,183436,-352080941,1490435007,1360,1360,-12,-13,-2,31692
1437196006.44473600,183838,-352080929,1490435003,1340,1340,-11,-13,-2,31690
1437196006.75887203,184220,-352080920,1490435004,1320,1320,-12,-14,-3,31688
1437196007.10532784,184622,-352080909,1490435003,1330,1330,-12,-14,-2,31687
1437196007.52625990,185023,-352080909,1490435001,1320,1320,-12,-13,-3,31685
1437196008.00140786,185224,-352080894,1490435003,1310,1310,-12,-14,-3,31685
1437196008.30265999,185625,-352080877,1490435007,1310,1310,-12,-13,-3,31685
1437196008.71570802,186027,-352080875,1490435007,1300,1300,-12,-14,-3,31685
1437196009.22521996,186430,-352080862,1490435008,1290,1290,-12,-13,-2,31683
1437196009.55913591,186831,-352080850,1490435009,1270,1270,-12,-14,-2,31681
1437196009.95926404,187032,-352080838,1490435010,1250,1250,-12,-14,-3,31678
1437196010.38030005,187434,-352080830,1490435021,1250,1250,-12,-14,-2,31678
1437196010.73474002,187836,-352080817,1490435017,1240,1240,-12,-14,-2,31675
1437196010.97659588,188239,-352080800,1490435019,1220,1220,-11,-14,-3,31676
1437196011.24879193,188641,-352080794,1490435026,1240,1240,-11,-15,-3,31676
1437196011.55990386,189022,-352080793,1490435026,1250,1250,-10,-14,-2,31676
1437196011.80900788,189243,-352080795,1490435030,1250,1250,-9,-14,-1,31677
1437196012.24223185,189625,-352080765,1490435032,1250,1250,-10,-14,-1,31677
1437196012.65745187,190027,-352080774,1490435028,1260,1260,-9,-14,0,31675
1437196012.90546393,190429,-352080772,1490435020,1250,1250,-9,-14,0,31674
1437196013.27977204,190630,-352080773,1490435023,1240,1240,-9,-13,0,31674
1437196013.69481182,191031,-352080775,1490435021,1250,1250,-9,-13,0,31672
1437196014.21317601,191433,-352080768,1490435024,1270,1270,-9,-13,1,31673
1437196014.46427202,191634,-352080774,1490435021,1280,1280,-9,-13,1,31673
1437196014.70725584,192037,-352080764,1490435023,1290,1290,-9,-12,1,31672
1437196014.93841982,192238,-352080763,1490435022,1310,1310,-9,-12,2,31669
1437196015.29853201,192640,-352080759,1490435018,1310,1310,-9,-12,2,31669
1437196015.55185199,193042,-352080767,1490435018,1290,1290,-9,-12,1,31669
1437196015.96579194,193223,-352080750,1490435012,1290,1290,-10,-12,1,31668
1437196016.38005185,193624,-352080748,1490435010,1290,1290,-10,-12,1,31667
1437196016.63214803,193826,-352080746,1490435012,1290,1290,-9,-12,2,31667
1437196017.01627994,194228,-352080745,1490435017,1280,1280,-10,-12,1,31666
1437196017.36841989,194630,-352080732,1490435017,1290,1290,-10,-12,1,31667
1437196017.62861991,194831,-352080728,1490435018,1290,1290,-10,-12,1,31668
1437196017.98362398,195233,-352080742,1490435010,1270,1270,-10,-12,1,31668
1437196018.39679599,195434,-352080750,1490435005,1260,1260,-9,-11,0,31667
1437196018.63298798,195836,-352080748,1490435005,1240,1240,-9,-11,0,31667
1437196018.87700391,196238,-352080743,1490434997,1240,1240,-8,-11,0,31667
1437196019.18213582,196439,-352080748,1490434989,1240,1240,-8,-11,0,31666
1437196019.46035194,196840,-352080749,1490434980,1240,1240,-8,-10,0,31667
1437196019.78539205,197021,-352080756,1490434978,1240,1240,-8,-10,0,31666
1437196020.05251598,197423,-352080759,1490434976,1240,1240,-8,-10,0,31667
1437196020.32676005,197824,-352080775,1490434971,1250,1250,-8,-10,0,31665
1437196020.72585988,198025,-352080779,1490434964,1250,1250,-9,-10,0,31664
1437196021.08694386,198448,-352080777,1490434961,1260,1260,-8,-9,0,31662
1437196021.36209202,198829,-352080772,1490434962,1250,1250,-8,-9,0,31663
1437196021.76240802,199030,-352080755,1490434964,1260,1260,-8,-9,0,31663
1437196022.18747997,199432,-352080744,1490434960,1250,1250,-8,-9,0,31662
1437196022.53864002,199633,-352080731,1490434957,1250,1250,-8,-10,0,31660
1437196022.77573586,200035,-352080710,1490434955,1240,1240,-8,-10,0,31661
1437196023.01870394,200437,-352080682,1490434957,1220,1220,-8,-10,0,31659
1437196023.42279196,200639,-352080665,1490434954,1230,1230,-8,-10,0,31658
1437196023.83012390,201040,-352080660,1490434953,1250,1250,-8,-11,0,31657
1437196024.24457192,201241,-352080671,1490434956,1250,1250,-8,-11,0,31658
1437196024.50431991,201643,-352080658,1490434960,1260,1260,-8,-11,0,31658
1437196024.84053588,202026,-352080659,1490434950,1260,1260,-8,-10,0,31659
1437196025.08655190,202227,-352080655,1490434949,1260,1260,-8,-10,1,31657
1437196025.42879987,202628,-352080652,1490434954,1260,1260,-8,-10,1,31656
1437196025.66888404,202829,-352080652,1490434958,1270,1270,-8,-11,1,31655
1437196025.91369605,203230,-352080653,1490434959,1270,1270,-7,-10,1,31656
1437196026.32311988,203632,-352080655,1490434961,1260,1260,-7,-10,1,31655
1437196026.67446399,203833,-352080664,1490434960,1280,1280,-6,-11,1,31650
1437196026.98539186,204235,-352080666,1490434950,1280,1280,-6,-11,1,31647
1437196027.34658384,204436,-352080664,1490434946,1290,1290,-6,-11,2,31647
1437196027.76037598,204838,-352080665,1490434943,1310,1310,-6,-11,2,31645
1437196028.01877189,205240,-352080666,1490434945,1300,1300,-5,-11,1,31643
1437196028.38789582,205421,-352080662,1490434945,1320,1320,-5,-11,2,31643
1437196028.74208403,205823,-352080656,1490434945,1330,1330,-5,-12,2,31641
1437196029.05321598,206224,-352080645,1490434942,1350,1350,-5,-11,2,31640
1437196029.62651205,206625,-352080646,1490434940,1360,1360,-5,-11,2,31641
1437196030.03969598,206827,-352080668,1490434937,1380,1380,-5,-11,3,31638
1437196030.45579982,207229,-352080679,1490434936,1380,1380,-5,-11,2,31636
1437196030.81512785,207631,-352080670,1490434934,1390,1390,-5,-11,2,31636
1437196031.05409193,208033,-352080669,1490434934,1400,1400,-5,-11,1,31634
1437196031.38930798,208434,-352080675,1490434935,1410,1410,-5,-11,2,31631
1437196031.63521194,208837,-352080697,1490434937,1410,1410,-5,-11,2,31630
1437196031.88439202,209239,-352080693,1490434932,1430,1430,-5,-11,2,31627
1437196032.12451982,209640,-352080691,1490434924,1440,1440,-5,-10,2,31625
1437196032.52159190,210022,-352080674,1490434920,1440,1440,-6,-10,0,31626
1437196032.94973183,210445,-352080684,1490434922,1440,1440,-6,-9,0,31626
1437196033.36297202,210828,-352080695,1490434919,1440,1440,-6,-9,0,31629
1437196033.80765986,211230,-352080707,1490434914,1410,1410,-6,-9,0,31628
1437196034.38044405,211632,-352080703,1490434904,1410,1410,-6,-9,0,31626
1437196034.80038404,212033,-352080713,1490434888,1410,1410,-6,-8,0,31625
1437196035.30202389,212435,-352080719,1490434879,1420,1420,-6,-8,0,31624
1437196035.62951183,212636,-352080723,1490434877,1420,1420,-5,-8,0,31623
1437196036.03734398,213038,-352080722,1490434881,1400,1400,-5,-8,0,31622
1437196036.32027197,213440,-352080734,1490434882,1390,1390,-5,-8,0,31621
1437196036.56239200,213842,-352080734,1490434885,1400,1400,-4,-8,0,31620
1437196036.91258788,214223,-352080748,1490434883,1410,1410,-4,-8,0,31620
1437196037.22466803,214624,-352080772,1490434884,1400,1400,-3,-8,-1,31619
1437196037.46376395,214825,-352080782,1490434882,1410,1410,-3,-8,0,31617
1437196037.80706000,215227,-352080783,1490434878,1400,1400,-3,-8,0,31617
1437196038.06291986,215629,-352080776,1490434877,1410,1410,-3,-8,0,31615
1437196038.47114801,215830,-352080778,1490434878,1420,1420,-3,-8,0,31615
1437196038.72142386,216232,-352080781,1490434885,1410,1410,-3,-8,0,31614
1437196039.14440393,216633,-352080790,1490434889,1420,1420,-3,-8,0,31612
1437196039.55771589,216834,-352080797,1490434894,1430,1430,-2,-8,0,31610
1437196039.97165203,217034,-352080809,1490434897,1440,1440,-2,-8,0,31609
1437196040.43199205,217436,-352080825,1490434902,1440,1440,-3,-8,0,31609
1437196040.74419594,217637,-352080817,1490434903,1440,1440,-2,-8,0,31608
1437196040.98318005,218039,-352080821,1490434905,1450,1450,-2,-8,1,31607
1437196041.25925994,218240,-352080835,1490434914,1460,1460,-3,-8,1,31605
1437196041.53503585,218641,-352080857,1490434912,1470,1470,-3,-9,1,31606
1437196041.77952003,218842,-352080851,1490434909,1450,1450,-3,-9,0,31606
1437196042.04992795,219224,-352080854,1490434907,1440,1440,-3,-9,0,31607
1437196042.46281600,219626,-352080847,1490434912,1430,1430,-2,-9,0,31605
1437196042.87502003,220028,-352080856,1490434922,1430,1430,-3,-9,0,31604
1437196043.29408789,220430,-352080858,1490434925,1410,1410,-2,-9,0,31603
1437196043.64714789,220631,-352080872,1490434934,1410,1410,-3,-9,0,31601
1437196043.89626384,221033,-352080889,1490434937,1400,1400,-3,-8,-1,31600
1437196044.12741184,221434,-352080899,1490434932,1380,1380,-3,-8,-1,31601
1437196044.57279205,221837,-352080903,1490434931,1370,1370,-3,-8,-1,31599
1437196044.81179190,222239,-352080898,1490434943,1380,1380,-3,-9,-1,31596
1437196045.16438389,222640,-352080911,1490434939,1360,1360,-2,-8,-1,31595
1437196045.57732797,223022,-352080925,1490434939,1350,1350,-2,-8,-2,31594
1437196046.02033591,223423,-352080941,1490434935,1370,1370,-2,-7,0,31592
1437196046.43337584,223825,-352080959,1490434944,1360,1360,-2,-7,-1,31591
1437196046.81750393,224227,-352080963,1490434948,1360,1360,-2,-6,-1,31590
1437196047.16283989,224629,-352080976,1490434951,1350,1350,-2,-6,-1,31588
1437196047.42776799,225030,-352080975,1490434951,1340,1340,-3,-6,-1,31587
1437196047.88111997,225231,-352080966,1490434955,1330,1330,-3,-6,-1,31585
1437196048.22421598,225632,-352080972,1490434964,1310,1310,-3,-6,-2,31584
1437196048.47140384,226033,-352080978,1490434961,1300,1300,-3,-6,-2,31583
1437196048.87192392,226234,-352081000,1490434957,1300,1300,-2,-5,-2,31582
1437196049.13255191,226636,-352081000,1490434952,1300,1300,-3,-5,-2,31581
1437196049.39055586,226838,-352081019,1490434955,1280,1280,-3,-5,-2,31579
1437196049.71574402,227039,-352081019,1490434954,1270,1270,-3,-5,-3,31580
1437196050.05822396,227440,-352081023,1490434952,1250,1250,-3,-4,-4,31580
1437196050.47113585,227642,-352081024,1490434950,1220,1220,-2,-4,-4,31581
1437196050.71029997,228043,-352081014,1490434946,1200,1200,-2,-4,-4,31581
1437196050.94724798,228244,-352081014,1490434946,1170,1170,-2,-4,-5,31580
1437196051.36249185,228445,-352081018,1490434947,1170,1170,-2,-4,-5,31582
1437196051.71561193,228827,-352081008,1490434948,1170,1170,-2,-4,-4,31581
1437196051.95070386,229028,-352081013,1490434952,1150,1150,-2,-4,-5,31582
1437196052.53893185,229631,-352081027,1490434967,1140,1140,-2,-5,-5,31580
1437196052.77828002,229832,-352081038,1490434968,1140,1140,-2,-4,-4,31580
1437196053.01617193,230232,-352081042,1490434967,1140,1140,-2,-5,-4,31582
1437196053.43037605,230635,-352081067,1490434976,1130,1130,-2,-5,-4,31578
1437196053.83850002,230836,-352081091,1490434978,1120,1120,-1,-5,-4,31578
1437196054.34774399,231239,-352081101,1490434978,1100,1100,-1,-5,-4,31578
1437196054.67415595,231439,-352081106,1490434979,1090,1090,-1,-5,-4,31577
1437196055.08709598,231841,-352081128,1490434984,1090,1090,-1,-6,-4,31577
1437196055.44818783,232222,-352081122,1490434990,1090,1090,-1,-5,-3,31577
1437196055.70641994,232624,-352081134,1490434988,1100,1100,-1,-5,-2,31576
1437196056.11453199,233027,-352081128,1490434991,1110,1110,0,-5,-1,31576
1437196056.52898788,233228,-352081146,1490434998,1120,1120,0,-4,0,31575
1437196056.94183993,233830,-352081159,1490435000,1130,1130,0,-4,0,31572
1437196057.20299983,234232,-352081158,1490434995,1170,1170,0,-4,1,31572
1437196057.46007204,234835,-352081163,1490434987,1190,1190,0,-4,1,31572
1437196057.81622005,235237,-352081159,1490434986,1230,1230,0,-4,3,31572
1437196058.39645195,235839,-352081153,1490434988,1260,1260,0,-5,4,31572
1437196058.81067586,236241,-352081151,1490434993,1280,1280,0,-5,5,31570
1437196059.12967587,236643,-352081166,1490434991,1290,1290,1,-5,5,31570
1437196059.63383603,237025,-352081186,1490435005,1330,1330,0,-5,5,31569
1437196060.00209999,237427,-352081168,1490435015,1350,1350,0,-4,5,31569
1437196060.47621584,238030,-352081160,1490435019,1360,1360,0,-4,5,31566
1437196060.91963196,238432,-352081152,1490435028,1350,1350,0,-4,4,31565
1437196061.29379201,238633,-352081144,1490435031,1350,1350,0,-4,4,31567
1437196061.70277596,239035,-352081137,1490435036,1350,1350,0,-4,3,31566
1437196062.11596394,239437,-352081128,1490435029,1360,1360,0,-4,3,31565
1437196062.53020000,239839,-352081133,1490435026,1370,1370,0,-4,3,31563
1437196062.84936404,240241,-352081139,1490435024,1370,1370,0,-4,2,31562
1437196063.16746402,240622,-352081142,1490435026,1360,1360,-1,-4,2,31563
1437196063.54860783,240844,-352081145,1490435023,1360,1360,0,-3,2,31561
1437196063.78286004,241225,-352081147,1490435018,1380,1380,0,-3,2,31563
1437196064.13590789,241627,-352081138,1490435014,1420,1420,0,-3,3,31562
1437196064.60105205,242029,-352081142,1490435005,1450,1450,0,-3,4,31561
1437196065.02125597,242431,-352081135,1490435002,1440,1440,0,-3,3,31559
1437196065.37144399,242633,-352081136,1490435003,1450,1450,0,-3,3,31560
1437196065.61145592,243035,-352081136,1490435003,1460,1460,0,-4,3,31560
1437196066.05469584,243437,-352081145,1490434999,1460,1460,0,-4,2,31559
1437196066.40676403,243839,-352081149,1490434995,1480,1480,0,-4,3,31561
1437196066.64599204,244040,-352081142,1490434993,1490,1490,0,-4,3,31562
1437196066.88403583,244441,-352081133,1490434988,1510,1510,0,-4,3,31564
1437196067.29925585,244622,-352081136,1490434985,1520,1520,0,-4,3,31564
1437196067.65336394,245024,-352081135,1490434988,1530,1530,0,-4,4,31565
1437196067.89519191,245245,-352081134,1490434987,1550,1550,0,-4,4,31564
1437196068.22547984,245627,-352081125,1490434989,1540,1540,0,-4,4,31565
1437196068.52072382,245828,-352081131,1490434998,1560,1560,0,-4,4,31566
1437196068.75076795,246029,-352081122,1490435002,1560,1560,0,-5,3,31566
1437196069.16493583,246432,-352081108,1490434998,1550,1550,0,-5,3,31565
1437196069.57918000,246632,-352081116,1490434998,1570,1570,0,-5,3,31566
1437196069.98635602,247034,-352081092,1490435002,1560,1560,0,-4,2,31568
1437196070.39942789,247234,-352081086,1490435010,1540,1540,0,-5,2,31567
1437196070.81369185,247435,-352081083,1490435012,1540,1540,0,-5,1,31564
1437196071.23479986,247837,-352081089,1490435011,1520,1520,0,-5,0,31562
1437196071.53010798,248037,-352081093,1490435006,1510,1510,0,-5,0,31563
1437196071.79812789,248440,-352081092,1490435009,1490,1490,0,-5,0,31562
1437196072.04120803,248842,-352081078,1490435007,1470,1470,0,-5,-1,31560
1437196072.36819983,249243,-352081078,1490435005,1470,1470,0,-4,-1,31563
1437196072.62353182,249625,-352081087,1490435007,1450,1450,0,-4,-1,31562
1437196072.86263585,250026,-352081080,1490435015,1440,1440,0,-3,-2,31562
1437196073.18760395,250630,-352081058,1490435000,1420,1420,0,-3,-2,31559
1437196073.75986004,251232,-352081064,1490434978,1420,1420,0,-3,-2,31559
1437196074.17304802,251634,-352081059,1490434969,1410,1410,0,-4,-2,31555
1437196074.55616784,252035,-352081051,1490434957,1380,1380,1,-4,-3,31557
1437196075.06437588,252437,-352081050,1490434958,1370,1370,1,-4,-3,31555
1437196075.57360387,252839,-352081062,1490434958,1350,1350,1,-4,-3,31556
1437196075.98776793,253241,-352081057,1490434963,1330,1330,1,-4,-4,31556
1437196076.40102792,253643,-352081065,1490434964,1290,1290,2,-3,-5,31554
1437196076.82017994,254024,-352081066,1490434960,1300,1300,1,-3,-4,31554
1437196077.13332391,254426,-352081061,1490434960,1290,1290,2,-3,-4,31554
1437196077.48736787,254828,-352081057,1490434964,1280,1280,2,-2,-3,31553
1437196078.05671191,255231,-352081037,1490434971,1280,1280,2,-2,-3,31551
1437196078.41977191,255632,-352081030,1490434986,1300,1300,2,-3,-2,31549
1437196078.65385199,256033,-352081028,1490434988,1300,1300,2,-3,-2,31548
1437196078.89826798,256233,-352081031,1490434993,1310,1310,2,-3,-1,31548
1437196079.20301604,256635,-352081044,1490434995,1320,1320,2,-3,-1,31546
1437196079.71138000,257037,-352081049,1490435004,1340,1340,2,-3,0,31545
1437196079.97051597,257440,-352081034,1490435010,1360,1360,2,-3,1,31545
1437196080.54568005,257821,-352081032,1490435022,1370,1370,2,-3,1,31545
1437196080.79378796,258242,-352081046,1490435018,1350,1350,1,-3,0,31545
1437196081.17708397,258624,-352081040,1490435013,1370,1370,1,-3,1,31546
1437196081.52923203,259025,-352081032,1490435015,1370,1370,1,-3,1,31544
1437196082.00339603,259428,-352081030,1490435013,1390,1390,1,-3,2,31543
1437196098.29976797,15985,-352080860,1490435112,180,180,28,-24,4,31942
1437196098.64502001,16168,-352080855,1490435117,200,200,30,-25,5,31941
1437196098.89004803,16368,-352080850,1490435113,210,210,32,-27,5,31942
1437196099.19524384,16570,-352080870,1490435112,190,190,35,-29,3,31943
1437196099.54930782,16771,-352080874,1490435112,180,180,37,-31,2,31942
1437196099.88768005,17173,-352080883,1490435111,170,170,39,-32,2,31939
1437196100.12650800,17374,-352080891,1490435110,200,200,40,-33,4,31937
1437196100.53371596,17575,-352080895,1490435107,200,200,41,-34,4,31934
1437196100.94693184,17776,-352080911,1490435096,200,200,43,-34,4,31932
1437196101.36515999,17977,-352080912,1490435088,210,210,43,-34,5,31929
1437196101.86740398,18379,-352080916,1490435091,210,210,42,-32,5,31925
1437196102.28056788,18760,-352080910,1490435095,270,270,41,-31,8,31916
1437196102.61674404,18981,-352080920,1490435093,300,300,39,-29,10,31910
1437196102.96388388,19382,-352080920,1490435087,320,320,36,-25,11,31904
1437196103.19894791,19784,-352080917,1490435076,340,340,33,-23,10,31901
1437196103.47708797,20166,-352080936,1490435076,340,340,30,-21,10,31900
1437196103.71629190,20569,-352080951,1490435067,370,370,26,-18,10,31895
1437196103.95057201,21172,-352080947,1490435068,360,360,22,-16,8,31897
1437196104.21065187,21775,-352080961,1490435063,380,380,18,-13,8,31894
1437196104.69055986,22378,-352080979,1490435044,350,350,16,-12,5,31894
1437196105.30884385,22961,-352080988,1490435031,360,360,13,-10,4,31889
1437196105.96515203,23562,-352080984,1490435025,330,330,12,-10,3,31885
1437196106.34132004,23965,-352080991,1490435010,300,300,10,-9,1,31881
1437196106.95050383,24568,-352081013,1490434983,250,250,9,-10,-1,31880
1437196107.35764790,24969,-352081018,1490434967,210,210,8,-10,-3,31876
1437196107.77095985,25371,-352081000,1490434960,190,190,8,-10,-4,31872
1437196108.18511605,25772,-352080999,1490434952,170,170,8,-10,-4,31868
1437196108.60534382,26173,-352081015,1490434957,160,160,8,-10,-4,31864
1437196109.10826802,26577,-352081035,1490434958,160,160,8,-10,-4,31860
1437196109.53356791,26978,-352081033,1490434953,140,140,7,-10,-5,31856
1437196109.79173994,27379,-352081035,1490434952,120,120,7,-10,-4,31854
1437196110.10282803,27761,-352081047,1490434945,130,130,8,-10,-4,31850
1437196110.67907596,27981,-352081043,1490434943,120,120,8,-10,-4,31843
1437196111.02817988,28383,-352081038,1490434935,120,120,8,-10,-4,31837
1437196111.26732397,28766,-352081042,1490434930,110,110,8,-10,-4,31832
1437196111.70439982,29168,-352081061,1490434924,100,100,7,-10,-4,31827
1437196112.12466788,29570,-352081067,1490434918,80,80,8,-11,-4,31824
1437196112.62701988,29971,-352081087,1490434910,70,70,8,-10,-4,31819
1437196112.95299196,30373,-352081098,1490434898,50,50,8,-10,-5,31815
1437196113.37614799,30775,-352081085,1490434898,40,40,8,-9,-5,31810
1437196113.72832799,31177,-352081075,1490434904,0,0,8,-9,-6,31808
1437196113.98348784,31579,-352081074,1490434904,0,0,8,-9,-5,31804
1437196114.39660788,31780,-352081101,1490434901,20,20,7,-9,-4,31799
1437196114.76273990,32182,-352081112,1490434894,30,30,7,-9,-3,31794
1437196115.01693201,32563,-352081123,1490434892,30,30,7,-9,-2,31789
1437196115.44276404,32965,-352081126,1490434892,30,30,6,-9,-2,31786
1437196115.79322004,33367,-352081126,1490434890,30,30,6,-9,-2,31780
1437196116.26343584,33768,-352081146,1490434882,0,0,6,-9,-3,31777
1437196116.61627984,34170,-352081150,1490434882,0,0,5,-9,-2,31773
1437196116.86467600,34370,-352081155,1490434880,0,0,5,-9,-2,31767
1437196117.29793191,34772,-352081165,1490434875,0,0,6,-9,-1,31764
1437196117.65100789,35173,-352081183,1490434871,10,10,5,-9,0,31760
1437196117.89911199,35576,-352081181,1490434869,0,0,5,-9,0,31757
1437196118.33320785,35777,-352081200,1490434864,0,0,4,-9,0,31753
1437196118.78831601,36179,-352081201,1490434866,-10,-10,4,-8,0,31749
1437196119.02939582,36581,-352081212,1490434857,-10,-10,5,-9,0,31744
1437196119.26175594,36781,-352081211,1490434854,-10,-10,4,-8,0,31739
1437196119.62271190,37162,-352081203,1490434861,-10,-10,4,-9,0,31738
1437196119.96785998,37564,-352081208,1490434870,0,0,4,-9,0,31733
1437196120.23815989,37967,-352081204,1490434870,10,10,6,-7,0,31740
1437196120.62124801,38168,-352081216,1490434868,0,0,7,-5,0,31745
1437196120.96833205,38569,-352081215,1490434856,-10,-10,7,-4,0,31745
1437196121.27250004,38970,-352081219,1490434854,-20,-20,7,-5,0,31739
1437196121.61754799,39170,-352081231,1490434862,-10,-10,7,-6,0,31729
1437196122.05490398,39572,-352081228,1490434865,-10,-10,7,-5,0,31726
1437196122.41592383,39974,-352081233,1490434884,0,0,7,-5,1,31729
1437196122.68310404,40176,-352081241,1490434902,-10,-10,6,-4,1,31732
1437196123.09127188,40577,-352081248,1490434903,0,0,6,-4,1,31734
1437196123.51432395,40778,-352081233,1490434906,0,0,5,-3,2,31736
1437196123.76155591,41179,-352081233,1490434904,0,0,5,-2,2,31739
1437196124.09967589,41380,-352081222,1490434909,-10,-10,5,-2,1,31742
1437196124.34578395,41782,-352081222,1490434908,-10,-10,4,-1,0,31744
1437196124.69259596,41983,-352081186,1490434922,-10,-10,4,-1,1,31745
1437196124.93601584,42385,-352081201,1490434912,-10,-10,4,-1,1,31748
1437196125.16628790,42587,-352081216,1490434891,0,0,3,0,1,31750
1437196125.52032399,42968,-352081210,1490434874,0,0,3,0,1,31754
1437196125.87453198,43168,-352081212,1490434875,20,20,2,0,1,31757
1437196126.14360404,43591,-352081221,1490434868,20,20,2,0,1,31761
1437196126.38671589,43771,-352081227,1490434852,20,20,2,0,1,31764
1437196126.71370792,44175,-352081226,1490434845,20,20,1,0,1,31767
1437196126.96887183,44376,-352081233,1490434835,20,20,1,0,1,31770
1437196127.21697187,44778,-352081214,1490434840,20,20,0,0,1,31772
1437196127.54410791,44979,-352081196,1490434848,20,20,0,0,0,31774
1437196127.80223584,45381,-352081199,1490434838,0,0,0,-1,0,31776
1437196128.11339593,45582,-352081184,1490434841,0,0,0,0,0,31779
1437196128.68951201,45985,-352081185,1490434845,0,0,0,0,0,31781
1437196128.93677592,46166,-352081184,1490434846,10,10,0,0,0,31784
1437196129.34995985,46567,-352081190,1490434851,0,0,0,0,0,31787
1437196129.69509196,46769,-352081228,1490434847,0,0,0,0,0,31791
1437196129.94107199,47170,-352081214,1490434853,0,0,0,0,0,31796
1437196130.34030795,47371,-352081210,1490434853,-20,-20,0,0,0,31797
1437196130.75439596,47774,-352081194,1490434853,-20,-20,0,0,0,31801
1437196131.16760802,48176,-352081193,1490434858,-10,-10,0,0,0,31803
1437196131.59274793,48577,-352081189,1490434857,-20,-20,0,0,0,31805
1437196131.93701601,48778,-352081187,1490434853,-20,-20,0,-1,0,31808
1437196132.17624402,49181,-352081229,1490434851,-20,-20,0,-1,0,31812
1437196132.50230384,49582,-352081226,1490434852,-20,-20,1,0,0,31814
1437196132.83819604,49984,-352081225,1490434849,-10,-10,1,-1,0,31817
1437196133.18953204,50567,-352081214,1490434842,0,0,1,-1,0,31822
1437196133.44348001,50968,-352081235,1490434841,0,0,1,-2,0,31825
1437196133.85675192,51370,-352081233,1490434826,10,10,1,-1,1,31831
1437196134.11605597,51773,-352081244,1490434821,30,30,2,-2,1,31833
1437196134.62809587,52174,-352081261,1490434816,80,80,2,-2,2,31837
1437196134.99318385,52576,-352081243,1490434815,110,110,2,-2,3,31842
1437196135.32049203,52979,-352081237,1490434807,130,130,2,-2,3,31843
1437196135.72362399,53380,-352081231,1490434802,130,130,2,-2,3,31846
1437196136.07268786,53782,-352081226,1490434795,120,120,3,-3,3,31847
1437196136.43537998,54164,-352081231,1490434790,110,110,2,-3,2,31847
1437196136.79901195,54365,-352081205,1490434784,80,80,2,-2,0,31849
1437196137.11325192,54767,-352081215,1490434785,50,50,3,-3,0,31850
1437196137.39123583,54968,-352081204,1490434786,20,20,3,-3,-1,31854
1437196137.83544397,55370,-352081211,1490434766,10,10,2,-2,-1,31855
1437196138.07459998,55571,-352081209,1490434759,0,0,2,-2,-2,31860
1437196138.31000805,55973,-352081211,1490434757,-20,-20,2,-2,-3,31861
1437196138.63476801,56174,-352081203,1490434760,-30,-30,2,-2,-3,31863
1437196138.98790002,56576,-352081187,1490434763,-50,-50,1,-2,-3,31865
1437196139.24609590,56778,-352081186,1490434759,-60,-60,2,-2,-3,31867
1437196139.74719191,57180,-352081174,1490434755,-100,-100,2,-2,-4,31869
1437196140.07523990,57381,-352081175,1490434753,-120,-120,2,-2,-4,31871
1437196140.49256396,57783,-352081189,1490434751,-130,-130,2,-2,-5,31874
1437196140.84973192,57984,-352081189,1490434751,-150,-150,1,-2,-5,31876
1437196141.10342789,58387,-352081177,1490434747,-170,-170,1,-3,-5,31878
1437196141.52794385,58769,-352081169,1490434744,-190,-190,1,-3,-5,31879
1437196141.87918782,58970,-352081160,1490434743,-190,-190,2,-3,-5,31881
1437196142.11433196,59371,-352081155,1490434739,-190,-190,2,-3,-4,31885
1437196142.43849182,59572,-352081133,1490434728,-190,-190,2,-3,-3,31885
1437196142.80567193,59974,-352081118,1490434719,-200,-200,1,-3,-3,31887
1437196143.06169200,60376,-352081105,1490434709,-210,-210,1,-3,-3,31888
1437196143.42779183,60578,-352081094,1490434706,-220,-220,1,-3,-3,31890
1437196143.78111196,60980,-352081095,1490434701,-230,-230,1,-3,-3,31890
1437196144.01208782,61381,-352081092,1490434691,-260,-260,1,-3,-4,31892
1437196144.51416802,61762,-352081089,1490434695,-260,-260,1,-3,-3,31896
1437196144.88181996,62186,-352081085,1490434696,-240,-240,1,-3,-2,31898
1437196145.19658804,62566,-352081088,1490434692,-230,-230,0,-3,-1,31903
1437196145.50771999,62768,-352081080,1490434685,-190,-190,0,-3,0,31905
1437196145.92297983,63169,-352081075,1490434679,-130,-130,0,-4,2,31908
1437196146.29890394,63571,-352081086,1490434680,-80,-80,0,-4,4,31910
1437196146.58522391,63974,-352081076,1490434684,-20,-20,0,-3,6,31912
1437196146.91928005,64376,-352081065,1490434689,20,20,0,-3,8,31913
1437196147.32040405,64778,-352081078,1490434680,50,50,0,-3,8,31915
1437196147.74459982,65180,-352081099,1490434675,90,90,0,-4,9,31917
1437196148.14912391,65582,-352081109,1490434681,120,120,0,-4,9,31919
1437196148.60913205,65985,-352081116,1490434683,150,150,0,-3,9,31922
1437196148.92143202,66387,-352081123,1490434686,180,180,0,-3,9,31924
1437196149.16919589,66768,-352081128,1490434698,180,180,0,-3,8,31925
1437196149.39843988,66969,-352081138,1490434701,200,200,0,-4,8,31926
1437196149.80457997,67370,-352081138,1490434699,210,210,0,-4,8,31928
1437196150.17258787,67772,-352081129,1490434706,230,230,0,-3,7,31930
1437196150.63296390,68175,-352081109,1490434703,230,230,1,-4,7,31932
1437196150.88604784,68577,-352081103,1490434699,240,240,1,-3,6,31935
1437196151.27009988,68778,-352081105,1490434698,250,250,1,-3,6,31937
1437196151.61546803,69180,-352081098,1490434694,250,250,1,-3,5,31936
1437196151.87647986,69583,-352081100,1490434695,230,230,1,-3,4,31937
1437196152.29755187,69965,-352081102,1490434691,230,230,1,-3,3,31940
1437196152.59166384,70166,-352081092,1490434688,210,210,1,-3,2,31940
1437196152.91891193,70387,-352081098,1490434690,210,210,0,-3,1,31940
1437196153.32711983,70769,-352081101,1490434685,200,200,0,-3,1,31940
1437196153.74821997,71170,-352081100,1490434686,200,200,1,-3,1,31942
1437196154.16030383,71371,-352081105,1490434691,180,180,1,-3,0,31943
1437196154.66362405,71773,-352081100,1490434697,170,170,1,-4,0,31946
1437196154.98392391,71975,-352081105,1490434705,150,150,1,-4,0,31948
1437196155.39688802,72377,-352081093,1490434706,150,150,1,-4,-1,31949
1437196155.69902396,72577,-352081093,1490434721,160,160,1,-4,0,31951
1437196156.01829600,72980,-352081097,1490434727,150,150,1,-4,-1,31952
1437196156.38033199,73382,-352081083,1490434730,120,120,1,-5,-2,31952
1437196156.71641588,73583,-352081081,1490434733,100,100,1,-5,-2,31954
1437196156.95065188,74166,-352081088,1490434729,100,100,1,-6,-2,31957
1437196157.20478797,74566,-352081103,1490434730,40,40,1,-6,-4,31959
1437196157.45400405,75168,-352081100,1490434729,0,0,1,-6,-5,31962
1437196157.98394799,75570,-352081124,1490434734,-10,-10,1,-5,-5,31965
1437196158.50125599,76173,-352081123,1490434728,-40,-40,1,-6,-5,31966
1437196158.86248398,76575,-352081132,1490434720,-50,-50,2,-6,-4,31968
1437196159.37265587,76977,-352081137,1490434715,-60,-60,1,-6,-4,31969
1437196159.72579598,77379,-352081158,1490434712,-70,-70,2,-5,-4,31971
1437196160.15993190,77780,-352081160,1490434710,-80,-80,2,-5,-4,31972
1437196160.62015986,77981,-352081158,1490434715,-80,-80,2,-5,-3,31973
1437196160.85425186,78383,-352081159,1490434717,-70,-70,2,-5,-3,31976
1437196161.09465194,78785,-352081151,1490434720,-70,-70,1,-6,-3,31976
1437196161.41247988,78966,-352081160,1490434713,-70,-70,1,-6,-3,31975
1437196161.85658002,79367,-352081162,1490434706,-80,-80,1,-6,-3,31976
1437196162.09582782,79768,-352081152,1490434719,-100,-100,0,-6,-4,31977
1437196162.44776797,80170,-352081155,1490434718,-110,-110,0,-6,-4,31979
1437196162.89330792,80371,-352081148,1490434718,-120,-120,0,-6,-4,31981
1437196163.13107204,80773,-352081151,1490434718,-110,-110,0,-6,-2,31982
1437196163.48441982,81175,-352081153,1490434728,-110,-110,0,-6,-2,31982
1437196163.92856002,81376,-352081156,1490434732,-100,-100,0,-6,-2,31984
1437196164.18455601,81778,-352081152,1490434728,-120,-120,0,-6,-3,31985
1437196164.45969987,82180,-352081166,1490434742,-110,-110,0,-7,-2,31984
1437196164.92593598,82562,-352081169,1490434747,-110,-110,0,-6,-1,31981
1437196165.34008789,82783,-352081161,1490434751,-100,-100,0,-7,-1,31979
1437196165.75848794,83185,-352081164,1490434753,-130,-130,0,-8,-2,31969
1437196166.10844803,83566,-352081170,1490434758,-130,-130,0,-8,-2,31974
1437196166.41963196,83767,-352081165,1490434759,-120,-120,-2,-8,-1,31965
1437196188.41050386,17548,-352081061,1490434736,120,120,35,-25,2,32324
1437196188.72659588,17789,-352081043,1490434742,120,120,37,-26,3,32322
1437196188.96969199,18051,-352081032,1490434748,120,120,40,-27,3,32321
1437196189.19968796,18292,-352081018,1490434754,130,130,43,-29,2,32320
1437196189.55493593,18553,-352080997,1490434747,150,150,44,-29,3,32316
1437196189.96404004,18794,-352081000,1490434744,110,110,46,-30,1,32316
1437196190.20413589,19055,-352080981,1490434753,70,70,47,-30,0,32315
1437196190.44824004,19295,-352080984,1490434752,60,60,48,-30,0,32312
1437196190.75345993,19538,-352080993,1490434752,70,70,48,-30,1,32308
1437196191.10953188,19799,-352080996,1490434753,70,70,46,-28,2,32303
1437196191.45459199,20040,-352080999,1490434749,50,50,45,-28,1,32302
1437196191.68581605,20301,-352080993,1490434743,50,50,44,-27,1,32295
1437196191.97986794,20542,-352080993,1490434738,90,90,41,-24,4,32285
1437196192.24711585,21044,-352080996,1490434737,120,120,38,-22,5,32279
1437196192.49114799,21285,-352080998,1490434729,140,140,35,-19,7,32273
1437196192.82621598,21546,-352080996,1490434725,160,160,32,-18,8,32267
1437196193.07249188,22049,-352081001,1490434721,160,160,29,-16,6,32266
1437196193.32056785,22290,-352081002,1490434717,150,150,26,-14,6,32262
1437196193.55853200,22812,-352081004,1490434711,170,170,23,-12,7,32256
1437196193.94166398,23293,-352081000,1490434721,200,200,21,-11,7,32250
1437196194.38491988,23553,-352080991,1490434725,200,200,20,-10,7,32248
1437196194.77618384,24055,-352080968,1490434726,220,220,19,-9,8,32244
1437196195.10765600,24296,-352080967,1490434731,220,220,18,-8,7,32242
1437196195.45047593,24799,-352080948,1490434753,220,220,17,-7,6,32241
1437196195.83448792,25060,-352080946,1490434759,180,180,16,-7,4,32239
1437196196.18167186,25542,-352080919,1490434771,200,200,15,-6,4,32237
1437196196.65181589,25803,-352080902,1490434788,190,190,15,-6,3,32237
1437196197.00308800,26064,-352080892,1490434793,190,190,15,-5,3,32233
1437196197.25212789,26547,-352080891,1490434802,190,190,14,-5,2,32229
1437196197.68656802,26809,-352080896,1490434799,180,180,14,-5,1,32227
1437196198.09841990,27311,-352080901,1490434811,170,170,14,-5,1,32223
1437196198.51552796,27551,-352080904,1490434821,150,150,14,-5,0,32219
1437196198.82582402,27812,-352080909,1490434823,150,150,14,-5,0,32216
1437196199.07293200,28254,-352080904,1490434826,150,150,14,-5,0,32214
1437196199.54289198,28656,-352080887,1490434836,140,140,14,-5,0,32211
1437196199.90524387,29039,-352080891,1490434840,160,160,14,-4,0,32207
1437196200.14843202,29440,-352080874,1490434839,190,190,13,-5,1,32204
1437196200.37933183,29641,-352080848,1490434845,190,190,13,-4,1,32200
1437196200.67347598,30083,-352080839,1490434854,180,180,13,-4,0,32196
1437196201.00962400,30243,-352080837,1490434870,200,200,13,-4,1,32192
1437196201.35692382,30645,-352080828,1490434890,200,200,12,-4,1,32188
1437196201.63090396,31048,-352080832,1490434898,200,200,12,-4,1,32185
1437196201.98298383,31249,-352080822,1490434914,200,200,12,-4,0,32180
1437196202.35416794,31651,-352080832,1490434928,180,180,12,-4,0,32177
1437196202.95146394,31852,-352080827,1490434934,160,160,13,-4,0,32174
1437196203.31762385,32254,-352080816,1490434937,160,160,12,-4,0,32171
1437196203.55675197,32455,-352080790,1490434944,170,170,13,-4,0,32167
1437196203.79090405,32656,-352080786,1490434948,170,170,14,-5,1,32164
1437196204.21411204,33058,-352080783,1490434964,250,250,10,-16,53,31612
1437196204.53331184,33259,-352080791,1490434970,480,480,24,-31,83,30084
1437196204.87428784,33662,-352080778,1490434970,700,700,74,-49,43,28526
1437196205.11350799,34043,-352080754,1490434950,770,770,91,-29,20,27331
1437196205.36048388,34244,-352080734,1490434941,850,850,98,-34,24,27474
1437196205.66574001,34646,-352080690,1490434924,920,920,92,-62,29,27987
1437196206.18076801,35049,-352080662,1490434896,950,950,79,-65,-8,28087
1437196206.53497195,35450,-352080616,1490434871,920,920,9,-68,-8,27225
1437196206.79913187,35651,-352080603,1490434853,830,830,-42,-34,-46,26671
1437196207.21030784,36093,-352080587,1490434829,650,650,-78,16,-65,25142
1437196207.62448382,36455,-352080599,1490434820,390,390,-90,37,-48,23776
1437196207.98563194,36837,-352080576,1490434821,230,230,-81,43,-20,22963
1437196208.22080803,37259,-352080565,1490434836,130,130,-70,29,-13,22685
1437196208.46599603,37440,-352080585,1490434819,70,70,-60,22,-10,22553
1437196208.95903993,37842,-352080624,1490434796,20,20,-54,9,-4,22561
1437196209.27919197,38244,-352080618,1490434803,-30,-30,-46,0,-5,22544
1437196209.69236803,38646,-352080604,1490434813,-50,-50,-35,-9,-5,22516
1437196210.05837989,39048,-352080594,1490434793,-50,-50,-26,-17,-5,22495
1437196210.31422400,39429,-352080584,1490434794,-50,-50,-18,-25,-4,22468
1437196210.72601986,39630,-352080577,1490434796,-70,-70,-10,-31,-5,22441
1437196211.14001584,40031,-352080571,1490434794,-90,-90,-5,-37,-5,22421
1437196211.45819592,40453,-352080546,1490434805,-110,-110,0,-40,-5,22394
1437196211.81229591,40855,-352080528,1490434818,-110,-110,4,-43,-5,22369
1437196212.21950388,41256,-352080540,1490434816,-130,-130,6,-46,-5,22342
1437196212.45744801,41437,-352080509,1490434817,-120,-120,8,-47,-4,22314
1437196212.69151187,41839,-352080529,1490434810,-110,-110,9,-49,-3,22294
1437196212.98779583,42241,-352080538,1490434807,-80,-80,10,-48,-2,22264
1437196213.41593194,42643,-352080543,1490434797,-70,-70,10,-47,-2,22241
1437196213.77713990,42844,-352080549,1490434793,-40,-40,10,-45,-1,22213
1437196214.05212402,43246,-352080549,1490434790,-20,-20,10,-45,0,22192
1437196214.45233989,43648,-352080521,1490434785,-20,-20,9,-44,0,22172
1437196214.86641598,43829,-352080530,1490434777,0,0,8,-42,0,22150
1437196215.27966404,44231,-352080550,1490434774,10,10,7,-39,0,22127
1437196215.59903598,44634,-352080546,1490434790,50,50,6,-37,2,22100
1437196216.05105591,44835,-352080556,1490434795,100,100,4,-35,3,22081
1437196216.29117990,45236,-352080545,1490434785,140,140,4,-34,4,22063
1437196216.53623986,45639,-352080561,1490434787,170,170,2,-31,5,22039
1437196216.94676805,45839,-352080558,1490434795,190,190,1,-30,5,22018
1437196217.29551983,46242,-352080581,1490434778,180,180,0,-27,4,21994
1437196217.56089997,46643,-352080573,1490434794,190,190,-1,-25,4,21975
1437196217.97981596,47045,-352080562,1490434802,210,210,-3,-24,3,21951
1437196218.33577585,47447,-352080543,1490434814,210,210,-3,-23,3,21930
1437196218.59594393,47648,-352080555,1490434829,220,220,-4,-22,3,21912
1437196218.95153594,48050,-352080550,1490434838,220,220,-4,-21,3,21891
1437196219.19851184,48452,-352080550,1490434851,200,200,-5,-20,2,21875
1437196219.62961197,48854,-352080556,1490434852,200,200,-6,-20,1,21857
1437196219.98475599,49035,-352080564,1490434855,190,190,-6,-20,1,21842
1437196220.22876000,49437,-352080567,1490434866,210,210,-6,-19,1,21825
1437196220.45979595,49839,-352080569,1490434868,210,210,-7,-19,1,21806
1437196220.81213999,50040,-352080562,1490434877,210,210,-6,-19,1,21791
1437196221.16721201,50442,-352080577,1490434884,210,210,-6,-18,0,21777
1437196221.43636799,50643,-352080589,1490434881,180,180,-7,-18,0,21767
1437196221.67934799,50844,-352080586,1490434881,180,180,-7,-18,0,21752
1437196222.00663996,51245,-352080587,1490434894,180,180,-7,-18,0,21738
1437196222.26271582,51446,-352080593,1490434898,170,170,-7,-17,-1,21724
1437196222.50178385,51849,-352080596,1490434884,170,170,-7,-17,0,21712
1437196222.77794003,52051,-352080601,1490434881,180,180,-7,-17,-1,21701
1437196223.19099998,52231,-352080598,1490434887,180,180,-7,-17,0,21689
1437196223.57517600,52633,-352080583,1490434895,170,170,-6,-17,0,21675
1437196223.92132401,52854,-352080573,1490434900,160,160,-7,-16,0,21661
1437196224.18752789,53256,-352080586,1490434893,180,180,-7,-16,0,21647
1437196224.60168386,53436,-352080590,1490434889,180,180,-7,-15,0,21638
1437196224.89577198,53839,-352080594,1490434888,170,170,-7,-15,0,21626
1437196225.22287202,54080,-352080609,1490434893,170,170,-6,-15,0,21613
1437196225.63124800,54241,-352080613,1490434903,170,170,-6,-15,0,21600
1437196226.05219197,54645,-352080629,1490434914,160,160,-6,-14,-1,21588
1437196226.30337596,55045,-352080633,1490434917,160,160,-6,-13,0,21574
1437196226.70949984,55246,-352080633,1490434928,160,160,-6,-13,0,21559
1437196227.06060386,55649,-352080640,1490434939,170,170,-5,-12,0,21545
1437196227.30181599,56050,-352080657,1490434957,170,170,-5,-12,0,21530
1437196227.70097995,56432,-352080660,1490434974,190,190,-5,-11,0,21512
1437196228.06419587,57033,-352080652,1490434989,220,220,-5,-11,1,21493
1437196228.31718397,57434,-352080654,1490435004,240,240,-6,-11,2,21472
1437196228.61743999,57835,-352080646,1490435003,230,230,-6,-10,1,21453
1437196229.16556001,58439,-352080639,1490435004,230,230,-6,-10,1,21432
1437196229.51072788,58841,-352080668,1490435011,230,230,-6,-10,0,21420
1437196230.02208805,59243,-352080673,1490435012,240,240,-6,-9,1,21406
1437196230.39618802,59644,-352080671,1490435015,230,230,-6,-9,0,21393
1437196230.80423999,59845,-352080666,1490435024,230,230,-6,-9,0,21383
1437196231.16539192,60288,-352080652,1490435014,240,240,-7,-8,0,21372
1437196231.47654390,60651,-352080647,1490435022,230,230,-7,-8,0,21361
1437196231.95252395,61051,-352080658,1490435026,230,230,-7,-7,0,21351
1437196232.22908401,61252,-352080645,1490435028,230,230,-7,-7,0,21338
1437196232.57102799,61653,-352080646,1490435023,240,240,-8,-8,0,21327
1437196232.82552385,62055,-352080649,1490435028,250,250,-8,-7,0,21316
1437196233.09736800,62456,-352080642,1490435028,250,250,-8,-7,0,21306
1437196233.50143600,62658,-352080637,1490435033,250,250,-8,-7,0,21295
1437196233.91955185,63060,-352080636,1490435031,230,230,-9,-7,0,21287
1437196234.27098799,63461,-352080627,1490435029,220,220,-9,-7,0,21277
1437196234.58187985,63662,-352080614,1490435024,230,230,-9,-7,0,21267
1437196235.09518003,64064,-352080602,1490435024,230,230,-9,-6,0,21257
1437196235.33420396,64445,-352080595,1490435029,230,230,-8,-6,0,21249
1437196235.57837582,64848,-352080586,1490435033,220,220,-8,-7,0,21240
1437196235.82343984,65049,-352080583,1490435035,220,220,-8,-7,0,21231
1437196236.39960003,65450,-352080577,1490435033,220,220,-8,-6,0,21224
1437196236.75483203,65852,-352080572,1490435033,220,220,-9,-7,0,21216
1437196237.16807199,66093,-352080567,1490435035,230,230,-8,-6,0,21208
1437196237.40313983,66454,-352080571,1490435045,220,220,-9,-6,0,21200
1437196237.68932390,66856,-352080578,1490435044,220,220,-9,-6,0,21191
1437196238.25942802,67057,-352080577,1490435048,220,220,-9,-5,0,21182
1437196238.50749183,67460,-352080574,1490435057,230,230,-10,-5,0,21175
1437196239.02384400,67842,-352080574,1490435052,240,240,-9,-5,0,21167
1437196239.26388383,68243,-352080574,1490435043,230,230,-9,-5,0,21161
1437196239.50204396,68444,-352080576,1490435044,220,220,-9,-5,0,21152
1437196239.92120790,68847,-352080566,1490435032,200,200,-8,-4,-1,21147
1437196240.27731586,69249,-352080551,1490435021,210,210,-8,-4,-1,21139
1437196240.53143191,69450,-352080543,1490435017,210,210,-8,-4,-1,21132
1437196240.94447589,69851,-352080543,1490435021,190,190,-9,-4,-1,21127
1437196241.20610404,70253,-352080543,1490435026,200,200,-9,-4,-1,21120
1437196241.58075595,70656,-352080537,1490435020,200,200,-8,-3,0,21114
1437196241.92695594,70858,-352080539,1490435029,200,200,-9,-4,0,21108
1437196242.20118403,71260,-352080541,1490435038,210,210,-9,-3,0,21100
1437196242.60169196,71641,-352080544,1490435046,220,220,-9,-3,0,21095
1437196243.01543593,71862,-352080536,1490435045,210,210,-9,-3,0,21088
1437196243.27580786,72244,-352080540,1490435051,220,220,-9,-3,0,21082
1437196243.65165186,72647,-352080545,1490435057,250,250,-9,-3,0,21076
1437196244.04304790,73049,-352080540,1490435060,260,260,-9,-3,1,21070
1437196244.30198789,73250,-352080527,1490435064,300,300,-9,-3,2,21066
1437196244.54110789,73651,-352080524,1490435051,300,300,-9,-3,2,21057
1437196244.77516389,74052,-352080522,1490435037,300,300,-9,-2,1,21053
1437196245.13130784,74253,-352080518,1490435031,280,280,-9,-3,0,21048
1437196245.51453185,74655,-352080516,1490435016,250,250,-9,-2,0,21042
1437196245.75750399,75057,-352080503,1490435014,270,270,-9,-2,0,21038
1437196246.17069602,75258,-352080503,1490435017,290,290,-10,-3,1,21034
1437196246.51795983,75660,-352080509,1490435019,310,310,-9,-2,2,21031
1437196246.74907994,76083,-352080515,1490435022,310,310,-9,-2,2,21026
1437196247.16311598,76445,-352080528,1490435017,320,320,-9,-1,2,21020
1437196247.57830787,76646,-352080535,1490435020,320,320,-9,-1,1,21015
1437196247.82839990,77049,-352080543,1490435029,320,320,-9,-1,1,21011
1437196248.34075999,77450,-352080546,1490435035,330,330,-9,-1,1,21007
1437196248.58973598,77651,-352080548,1490435040,320,320,-9,-1,1,21003
1437196248.82696390,78093,-352080537,1490435040,330,330,-9,0,1,20999
1437196249.22597599,78455,-352080534,1490435043,320,320,-9,0,1,20997
1437196249.63924789,78857,-352080537,1490435046,320,320,-9,0,1,20991
1437196250.05340004,79058,-352080561,1490435053,330,330,-9,0,1,20987
1437196250.37245202,79460,-352080581,1490435059,310,310,-9,0,0,20984
1437196250.69067192,79862,-352080597,1490435071,320,320,-9,0,1,20978
1437196251.03696394,80063,-352080601,1490435081,320,320,-9,0,0,20976
1437196251.39104390,80464,-352080615,1490435091,320,320,-10,0,0,20973
1437196251.66004801,80866,-352080624,1490435098,310,310,-9,0,0,20971
1437196252.07359195,81048,-352080629,1490435099,290,290,-9,0,0,20967
1437196252.30851197,81449,-352080644,1490435109,300,300,-9,0,0,20963
1437196252.55231595,81852,-352080654,1490435112,300,300,-9,0,0,20959
1437196253.04657984,82254,-352080662,1490435121,300,300,-9,0,0,20954
1437196253.37392402,82455,-352080664,1490435121,290,290,-9,0,0,20951
1437196253.78198385,82857,-352080666,1490435136,310,310,-9,0,0,20949
1437196254.19603586,83258,-352080672,1490435142,300,300,-9,0,0,20946
1437196254.51527596,83459,-352080672,1490435148,300,300,-9,0,0,20942
1437196254.83325982,83861,-352080674,1490435150,300,300,-9,0,0,20940
1437196255.21440792,84262,-352080670,1490435154,300,300,-9,0,0,20937
1437196255.44661188,84664,-352080664,1490435163,310,310,-9,0,0,20933
