timestamp,SCALED_PRESSURE.time_boot_ms,SCALED_PRESSURE.press_abs,SCALED_PRESSURE.press_diff,SCALED_PRESSURE.temperature,SCALED_PRESSURE.temperature_press_diff
1437195927.90108395,103656,960.67138671875,-0.22046874463558197,3191,0
1437195928.18114400,104379,960.688720703125,-0.203125,3198,0
1437195928.58630800,105223,960.6828002929688,-0.20906250178813934,3204,0
1437195928.83744383,106186,960.683349609375,-0.20851561427116394,3213,0
1437195929.51491594,107191,960.6814575195312,-0.2103906273841858,3221,0
1437195930.44112396,108115,960.699951171875,-0.19187499582767487,3229,0
1437195931.34733605,108959,960.6714477539062,-0.22039061784744263,3235,0
1437195932.17269588,109723,960.6856689453125,-0.20617187023162842,3242,0
1437195932.78797984,110486,960.668701171875,-0.22312499582767487,3246,0
1437195933.61934805,111249,960.681640625,-0.2102343738079071,3253,0
1437195934.23724389,111932,960.7012329101562,-0.19062499701976776,3259,0
1437195934.85870790,112534,960.6942138671875,-0.19765624403953552,3264,0
1437195935.47806382,113136,960.6942749023438,-0.19757811725139618,3268,0
1437195936.00119591,113659,960.6985473632812,-0.19328124821186066,3271,0
1437195936.51245999,114181,960.698486328125,-0.193359375,3276,0
1437195937.03473592,114625,960.7042236328125,-0.1876562386751175,3280,0
1437195937.44786787,115067,960.6798706054688,-0.21195311844348907,3282,0
1437195937.76893592,115468,960.6824951171875,-0.20937499403953552,3286,0
1437195938.29318404,115870,960.6998901367188,-0.1919531226158142,3290,0
1437195938.57636786,116273,960.6813354492188,-0.21054686605930328,3292,0
1437195938.99356389,116635,960.7048950195312,-0.1869531273841858,3296,0
1437195939.34354401,116997,960.6856689453125,-0.20617187023162842,3298,0
1437195939.75181603,117359,960.6956787109375,-0.1961718648672104,3300,0
1437195940.05795598,117720,960.6914672851562,-0.20039062201976776,3303,0
1437195940.44219995,118082,960.7113037109375,-0.1805468648672104,3307,0
1437195940.75823188,118403,960.6970825195312,-0.1947656273841858,3310,0
1437195941.06233597,118725,960.6900024414062,-0.2018750011920929,3311,0
1437195941.47655988,119047,960.6870727539062,-0.20476561784744263,3314,0
1437195941.88973594,119368,960.698486328125,-0.193359375,3317,0
1437195942.36477184,119689,960.6928100585938,-0.1990624964237213,3318,0
1437195942.78098798,120010,960.69140625,-0.2004687488079071,3321,0
1437195943.23062396,120332,960.7056274414062,-0.1862500011920929,3324,0
1437195943.54728794,120654,960.6800537109375,-0.2117968648672104,3326,0
1437195943.99445605,121016,960.6814575195312,-0.2103906273841858,3328,0
1437195944.22901201,121377,960.6956787109375,-0.1961718648672104,3331,0
1437195944.58261585,121738,960.6956787109375,-0.1961718648672104,3335,0
1437195944.95695186,122140,960.7028198242188,-0.18906249105930328,3338,0
1437195945.19603205,122543,960.6870727539062,-0.20476561784744263,3341,0
1437195945.44517994,122946,960.6898803710938,-0.20195311307907104,3343,0
1437195945.72823191,123387,960.698486328125,-0.193359375,3347,0
1437195946.14132404,123829,960.6985473632812,-0.19328124821186066,3350,0
1437195946.57262397,124230,960.6842651367188,-0.2075781226158142,3354,0
1437195946.98589993,124632,960.6732788085938,-0.2185937464237213,3357,0
1437195947.38094401,125034,960.6970825195312,-0.1947656273841858,3360,0
1437195947.79506803,125396,960.6942138671875,-0.19765624403953552,3364,0
1437195948.12929201,125757,960.701171875,-0.1907031238079071,3366,0
1437195948.72050786,126118,960.7014770507812,-0.19039061665534973,3370,0
1437195949.15878391,126479,960.698486328125,-0.193359375,3373,0
1437195949.40583587,126840,960.6950073242188,-0.19687499105930328,3375,0
1437195949.64506793,127203,960.7042846679688,-0.18757812678813934,3379,0
1437195949.98901582,127565,960.7070922851562,-0.18476562201976776,3382,0
1437195950.27032399,127927,960.6974487304688,-0.19437499344348907,3385,0
1437195950.64640784,128288,960.6970825195312,-0.1947656273841858,3388,0
1437195951.06054783,128609,960.7049560546875,-0.18687500059604645,3391,0
1437195951.47785187,128930,960.708251953125,-0.18359375,3393,0
1437195951.85073590,129252,960.7049560546875,-0.18687500059604645,3395,0
1437195952.12891197,129574,960.696533203125,-0.1953125,3396,0
1437195952.51212788,129896,960.7028198242188,-0.18906249105930328,3400,0
1437195952.79810405,130218,960.7171020507812,-0.17476561665534973,3403,0
1437195953.06129599,130539,960.7042236328125,-0.1876562386751175,3405,0
1437195953.38671994,130860,960.7042236328125,-0.1876562386751175,3407,0
1437195953.71574402,131182,960.7213745117188,-0.1704687476158142,3410,0
1437195953.95482802,131504,960.7171020507812,-0.17476561665534973,3413,0
1437195954.37587190,131826,960.6928100585938,-0.1990624964237213,3416,0
1437195954.61509991,132147,960.6900024414062,-0.2018750011920929,3417,0
1437195954.96313190,132468,960.6900024414062,-0.2018750011920929,3420,0
1437195955.20234394,132790,960.6870727539062,-0.20476561784744263,3421,0
1437195955.61939597,133112,960.6942138671875,-0.19765624403953552,3424,0
1437195955.99456000,133434,960.699951171875,-0.19187499582767487,3428,0
1437195956.23263597,133755,960.6928100585938,-0.1990624964237213,3430,0
1437195956.48885202,134076,960.7042236328125,-0.1876562386751175,3433,0
1437195956.82299995,134397,960.6898803710938,-0.20195311307907104,3434,0
1437195957.10412788,134718,960.6982421875,-0.19359374046325684,3436,0
1437195957.42021585,135040,960.671630859375,-0.22023436427116394,3438,0
1437195957.83435202,135361,960.6900024414062,-0.2018750011920929,3441,0
1437195958.24744391,135683,960.6828002929688,-0.20906250178813934,3442,0
1437195958.56525993,136005,960.7056274414062,-0.1862500011920929,3445,0
1437195958.90713191,136326,960.6956787109375,-0.1961718648672104,3449,0
1437195959.23831582,136648,960.7042846679688,-0.18757812678813934,3452,0
1437195959.55609989,136971,960.6998901367188,-0.1919531226158142,3453,0
1437195959.79515982,137292,960.7099609375,-0.18187499046325684,3455,0
1437195960.17428398,137614,960.7099609375,-0.18187499046325684,3457,0
1437195960.52754784,137936,960.7113647460938,-0.18046875298023224,3460,0
1437195960.94178391,138257,960.7099609375,-0.18187499046325684,3462,0
1437195961.28669190,138579,960.7124633789062,-0.17937499284744263,3464,0
1437195961.67197990,138902,960.7111206054688,-0.18070311844348907,3466,0
1437195961.93315983,139223,960.6962280273438,-0.19562499225139618,3467,0
1437195962.18411994,139545,960.6961669921875,-0.19570311903953552,3471,0
1437195962.63195586,139906,960.6884765625,-0.20335936546325684,3473,0
1437195962.86153984,140268,960.7056274414062,-0.1862500011920929,3478,0
1437195963.27463984,140630,960.7015991210938,-0.19023437798023224,3479,0
1437195963.52075195,140992,960.7028198242188,-0.18906249105930328,3480,0
1437195963.89992404,141354,960.699951171875,-0.19187499582767487,3484,0
1437195964.34916782,141715,960.7085571289062,-0.18328124284744263,3486,0
1437195964.70200801,142078,960.684326171875,-0.20749999582767487,3489,0
1437195964.90035987,142439,960.699951171875,-0.19187499582767487,3491,0
1437195965.24351192,142801,960.7056884765625,-0.18617187440395355,3493,0
1437195965.56095195,143163,960.7037353515625,-0.18812499940395355,3495,0
1437195965.91280389,143524,960.6956787109375,-0.1961718648672104,3497,0
1437195966.41898394,143887,960.7112426757812,-0.18062499165534973,3500,0
1437195966.79807997,144248,960.6928100585938,-0.1990624964237213,3503,0
1437195967.15226388,144610,960.71826171875,-0.17359374463558197,3505,0
1437195967.56542397,144972,960.7085571289062,-0.18328124284744263,3507,0
1437195967.91071987,145334,960.7113647460938,-0.18046875298023224,3509,0
1437195968.18019605,145696,960.7014770507812,-0.19039061665534973,3512,0
1437195968.44410801,146058,960.71630859375,-0.17554686963558197,3514,0
1437195968.80891585,146419,960.7056274414062,-0.1862500011920929,3517,0
1437195969.24707603,146781,960.6948852539062,-0.19695311784744263,3519,0
1437195969.49823594,147143,960.6998901367188,-0.1919531226158142,3521,0
1437195969.84432793,147506,960.7157592773438,-0.17609374225139618,3524,0
1437195970.28360391,147867,960.70703125,-0.1848437488079071,3525,0
1437195970.55958390,148229,960.7085571289062,-0.18328124284744263,3527,0
1437195970.93880796,148570,960.6985473632812,-0.19328124821186066,3529,0
1437195971.34431601,148892,960.6985473632812,-0.19328124821186066,3530,0
1437195971.55818796,149214,960.7028198242188,-0.18906249105930328,3533,0
1437195971.91620398,149536,960.6956787109375,-0.1961718648672104,3535,0
1437195972.26536393,149857,960.688720703125,-0.203125,3535,0
1437195972.66367197,150178,960.6900024414062,-0.2018750011920929,3538,0
1437195972.90366387,150500,960.6998901367188,-0.1919531226158142,3540,0
1437195973.21390796,150821,960.7000732421875,-0.19179686903953552,3541,0
1437195973.47287989,151143,960.6884765625,-0.20335936546325684,3543,0
1437195973.81413198,151465,960.699951171875,-0.19187499582767487,3545,0
1437195974.04612803,151746,960.67138671875,-0.22046874463558197,3545,0
1437195974.48528790,152027,960.6862182617188,-0.2056249976158142,3548,0
1437195974.83646798,152308,960.678466796875,-0.21335937082767487,3550,0
1437195975.11502004,152589,960.6936645507812,-0.19820311665534973,3552,0
1437195975.43387985,152871,960.6970825195312,-0.1947656273841858,3553,0
1437195975.67483592,153153,960.69140625,-0.2004687488079071,3554,0
1437195975.90793204,153434,960.6856689453125,-0.20617187023162842,3555,0
1437195976.32218790,153716,960.6956787109375,-0.1961718648672104,3557,0
1437195976.56820393,153997,960.69140625,-0.2004687488079071,3558,0
1437195976.88425994,154278,960.6828002929688,-0.20906250178813934,3560,0
1437195977.32152390,154559,960.6661987304688,-0.22562499344348907,3560,0
1437195977.55962396,154840,960.6700439453125,-0.22179687023162842,3563,0
1437195977.80274391,155121,960.6669921875,-0.22484374046325684,3564,0
1437195978.15376401,155403,960.6956787109375,-0.1961718648672104,3566,0
1437195978.44202399,155684,960.6814575195312,-0.2103906273841858,3566,0
1437195978.68600798,156006,960.6900024414062,-0.2018750011920929,3568,0
1437195979.01240802,156328,960.6956787109375,-0.1961718648672104,3571,0
1437195979.42728782,156649,960.6948852539062,-0.19695311784744263,3572,0
1437195979.66452789,157011,960.69140625,-0.2004687488079071,3573,0
1437195980.01248384,157373,960.6870727539062,-0.20476561784744263,3575,0
1437195980.29382396,157735,960.6928100585938,-0.1990624964237213,3578,0
1437195980.54887605,158096,960.6671142578125,-0.2247656136751175,3579,0
1437195980.87206793,158458,960.699951171875,-0.19187499582767487,3582,0
1437195981.22919202,158819,960.6915893554688,-0.20023436844348907,3584,0
1437195981.70623589,159183,960.699951171875,-0.19187499582767487,3585,0
1437195982.15653205,159545,960.6771850585938,-0.2146874964237213,3587,0
1437195982.47260785,159906,960.7028198242188,-0.18906249105930328,3589,0
1437195982.88579202,160268,960.6942138671875,-0.19765624403953552,3591,0
1437195983.14907598,160629,960.6714477539062,-0.22039061784744263,3592,0
1437195983.39306402,160991,960.6898803710938,-0.20195311307907104,3595,0
1437195983.67430782,161353,960.7042846679688,-0.18757812678813934,3598,0
1437195984.05241990,161714,960.6956787109375,-0.1961718648672104,3600,0
1437195984.46052003,162076,960.6925048828125,-0.1993749886751175,3601,0
1437195984.74864388,162417,960.6974487304688,-0.19437499344348907,3603,0
1437195985.11383986,162739,960.6962280273438,-0.19562499225139618,3604,0
1437195985.43283582,163061,960.698486328125,-0.193359375,3605,0
1437195985.99117589,163382,960.6856689453125,-0.20617187023162842,3607,0
1437195986.33431602,163704,960.6870727539062,-0.20476561784744263,3609,0
1437195986.72038794,164026,960.6900024414062,-0.2018750011920929,3610,0
1437195987.05012798,164347,960.7042236328125,-0.1876562386751175,3612,0
1437195987.32988405,164669,960.6870727539062,-0.20476561784744263,3614,0
1437195987.64694405,164990,960.6842651367188,-0.2075781226158142,3614,0
1437195988.08807993,165312,960.6856689453125,-0.20617187023162842,3617,0
1437195988.32717991,165633,960.6736450195312,-0.2182031273841858,3617,0
1437195988.68236399,165955,960.6928100585938,-0.1990624964237213,3620,0
1437195989.05553198,166276,960.699951171875,-0.19187499582767487,3622,0
1437195989.29562402,166598,960.6956787109375,-0.1961718648672104,3623,0
1437195989.53561187,166919,960.69287109375,-0.19898436963558197,3625,0
1437195989.80067182,167282,960.6982421875,-0.19359374046325684,3628,0
1437195990.12494397,167643,960.681640625,-0.2102343738079071,3628,0
1437195990.37396383,168006,960.6848754882812,-0.20695312321186066,3630,0
1437195990.75511599,168367,960.6870727539062,-0.20476561784744263,3631,0
1437195991.19328403,168730,960.69140625,-0.2004687488079071,3632,0
1437195991.43536401,169092,960.7012939453125,-0.19054687023162842,3635,0
1437195991.79049182,169453,960.69140625,-0.2004687488079071,3636,0
1437195992.15678000,169816,960.699951171875,-0.19187499582767487,3638,0
1437195992.50902796,170178,960.7056884765625,-0.18617187440395355,3639,0
1437195992.82535982,170499,960.7241821289062,-0.16765624284744263,3642,0
1437195993.23924804,170821,960.719970703125,-0.171875,3642,0
1437195993.71632385,171143,960.719970703125,-0.171875,3643,0
1437195994.06975603,171464,960.719970703125,-0.171875,3646,0
1437195994.41276383,171785,960.70849609375,-0.18335936963558197,3645,0
1437195994.65077591,172108,960.7127075195312,-0.1791406273841858,3647,0
1437195994.88988400,172429,960.7171020507812,-0.17476561665534973,3650,0
1437195995.16604805,172749,960.713623046875,-0.17820312082767487,3650,0
1437195995.42309594,173071,960.69873046875,-0.19312499463558197,3651,0
1437195995.75242782,173392,960.7137451171875,-0.17812499403953552,3652,0
1437195996.04342794,173715,960.7213745117188,-0.1704687476158142,3654,0
1437195996.39812803,174037,960.7171020507812,-0.17476561665534973,3655,0
1437195996.68267202,174358,960.7142944335938,-0.1775781214237213,3656,0
1437195997.07827187,174679,960.7142944335938,-0.1775781214237213,3658,0
1437195997.40691590,175000,960.7286376953125,-0.16320312023162842,3660,0
1437195997.64204001,175322,960.7199096679688,-0.17195312678813934,3662,0
1437195998.00418782,175644,960.7227783203125,-0.16906249523162842,3663,0
1437195998.41739202,175925,960.71875,-0.1731249988079071,3663,0
1437195998.83150387,176207,960.72998046875,-0.16187499463558197,3664,0
1437195999.19869995,176488,960.7156982421875,-0.17617186903953552,3665,0
1437195999.47693205,176769,960.7127685546875,-0.17906250059604645,3666,0
1437195999.75907183,177051,960.719970703125,-0.171875,3668,0
1437196000.13414001,177332,960.735595703125,-0.15625,3670,0
1437196000.51135588,177614,960.7142944335938,-0.1775781214237213,3670,0
1437196000.75029588,177936,960.7216186523438,-0.17023436725139618,3672,0
1437196001.10955596,178257,960.7249145507812,-0.16695311665534973,3673,0
1437196001.34055591,178579,960.7099609375,-0.18187499046325684,3674,0
1437196001.58376789,178900,960.7213745117188,-0.1704687476158142,3676,0
1437196001.82490396,179263,960.728515625,-0.1633593738079071,3678,0
1437196002.17398787,179624,960.7283325195312,-0.1635156273841858,3679,0
1437196002.41215205,179986,960.7213745117188,-0.1704687476158142,3680,0
1437196002.82915592,180348,960.7257080078125,-0.1661718785762787,3682,0
1437196003.20253992,180709,960.7371826171875,-0.15468749403953552,3684,0
1437196003.45045185,181071,960.7313842773438,-0.16046874225139618,3685,0
1437196004.00673985,181433,960.7399291992188,-0.15195311605930328,3687,0
1437196004.35201192,181795,960.72998046875,-0.16187499463558197,3689,0
1437196004.73702788,182156,960.7271118164062,-0.1647656261920929,3691,0
1437196005.06623983,182517,960.7271118164062,-0.1647656261920929,3692,0
1437196005.34432387,182879,960.7327880859375,-0.1590624898672104,3693,0
1437196005.59997988,183240,960.739990234375,-0.15187498927116394,3696,0
1437196006.00260401,183602,960.7548217773438,-0.13703124225139618,3698,0
1437196006.28530788,183964,960.7456665039062,-0.14617186784744263,3698,0
1437196006.69788790,184326,960.7542724609375,-0.1375781148672104,3700,0
1437196007.03203988,184687,960.7442626953125,-0.14757812023162842,3702,0
1437196007.37812400,185048,960.7462158203125,-0.14562499523162842,3703,0
1437196007.95587182,185409,960.7257080078125,-0.1661718785762787,3705,0
1437196008.20756388,185771,960.7366333007812,-0.15523436665534973,3707,0
1437196008.56061602,186133,960.7366333007812,-0.15523436665534973,3709,0
1437196009.03429604,186495,960.7556762695312,-0.1361718773841858,3712,0
1437196009.48305988,186856,960.7598876953125,-0.13195312023162842,3713,0
1437196009.86715603,187218,960.7542724609375,-0.1375781148672104,3715,0
1437196010.21735191,187580,960.7516479492188,-0.14023436605930328,3716,0
1437196010.65549588,187942,960.75,-0.1418749988079071,3716,0
1437196010.90262794,188304,960.7514038085938,-0.1404687464237213,3718,0
1437196011.17275596,188666,960.7427978515625,-0.14906249940395355,3720,0
1437196011.41478395,189027,960.7327880859375,-0.1590624898672104,3722,0
1437196011.73207593,189389,960.737060546875,-0.15476562082767487,3724,0
1437196012.08208799,189750,960.7428588867188,-0.1489843726158142,3726,0
1437196012.49735999,190112,960.7614135742188,-0.13046874105930328,3729,0
1437196012.84132791,190474,960.7528076171875,-0.13906249403953552,3729,0
1437196013.11952400,190795,960.7473754882812,-0.14445312321186066,3730,0
1437196013.59739184,191117,960.7413940429688,-0.15046875178813934,3731,0
1437196014.00689602,191438,960.7528076171875,-0.13906249403953552,3733,0
1437196014.38510799,191760,960.7542724609375,-0.1375781148672104,3735,0
1437196014.62318802,192082,960.7533569335938,-0.1385156214237213,3736,0
1437196014.87938404,192404,960.751220703125,-0.140625,3738,0
1437196015.21841598,192725,960.7412109375,-0.15062499046325684,3739,0
1437196015.45760393,193046,960.7614135742188,-0.13046874105930328,3741,0
1437196015.80974793,193368,960.7412109375,-0.15062499046325684,3741,0
1437196016.22382784,193689,960.7656860351562,-0.12617187201976776,3743,0
1437196016.56897998,194012,960.7437133789062,-0.14812499284744263,3745,0
1437196016.95409989,194334,960.7423706054688,-0.14945311844348907,3747,0
1437196017.28843188,194655,960.7412109375,-0.15062499046325684,3748,0
1437196017.52645993,194976,960.7361450195312,-0.1557031273841858,3750,0
1437196017.91253185,195298,960.7456665039062,-0.14617186784744263,3750,0
1437196018.14274001,195620,960.7598876953125,-0.13195312023162842,3754,0
1437196018.55676794,195942,960.768310546875,-0.12351562082767487,3755,0
1437196018.80201983,196263,960.76171875,-0.1301562488079071,3755,0
1437196019.12206388,196584,960.7466430664062,-0.1452343761920929,3757,0
1437196019.38423204,196906,960.7442626953125,-0.14757812023162842,3759,0
1437196019.62342000,197227,960.7584838867188,-0.1333593726158142,3761,0
1437196019.97345185,197549,960.7556762695312,-0.1361718773841858,3762,0
1437196020.25163603,197870,960.7470703125,-0.14476561546325684,3763,0
1437196020.63477182,198191,960.756591796875,-0.13523437082767487,3764,0
1437196020.91718793,198513,960.7483520507812,-0.14351561665534973,3764,0
1437196021.28700805,198834,960.7470092773438,-0.14484374225139618,3767,0
1437196021.67017603,199156,960.7485961914062,-0.1432812511920929,3768,0
1437196022.02139187,199477,960.7628173828125,-0.1290625035762787,3770,0
1437196022.45940399,199799,960.751220703125,-0.140625,3771,0
1437196022.69758391,200121,960.7561645507812,-0.13570311665534973,3773,0
1437196022.94476390,200443,960.7528076171875,-0.13906249403953552,3775,0
1437196023.32820392,200765,960.7442626953125,-0.14757812023162842,3776,0
1437196023.73496795,201086,960.7442016601562,-0.14765624701976776,3777,0
1437196024.08913183,201408,960.7456665039062,-0.14617186784744263,3777,0
1437196024.43863583,201729,960.7449951171875,-0.14687499403953552,3779,0
1437196024.74141192,202051,960.7542114257812,-0.13765624165534973,3780,0
1437196025.01047993,202372,960.7385864257812,-0.15328124165534973,3781,0
1437196025.35472393,202693,960.7327880859375,-0.1590624898672104,3782,0
1437196025.59582400,203015,960.7542724609375,-0.1375781148672104,3786,0
1437196025.83787203,203335,960.7485961914062,-0.1432812511920929,3787,0
1437196026.21716785,203658,960.7516479492188,-0.14023436605930328,3788,0
1437196026.59426403,203979,960.7349243164062,-0.1569531261920929,3789,0
1437196026.84144402,204300,960.74169921875,-0.15015624463558197,3790,0
1437196027.25142789,204621,960.7316284179688,-0.16023437678813934,3791,0
1437196027.60453987,204943,960.75,-0.1418749988079071,3793,0
1437196027.94677591,205265,960.7449951171875,-0.14687499403953552,3795,0
1437196028.28489995,205587,960.7474975585938,-0.1443749964237213,3796,0
1437196028.66393185,205908,960.7313232421875,-0.16054686903953552,3797,0
1437196028.90913200,206269,960.75,-0.1418749988079071,3800,0
1437196029.52630401,206630,960.7299194335938,-0.1619531214237213,3800,0
1437196029.93847585,206992,960.7413940429688,-0.15046875178813934,3802,0
1437196030.39657187,207354,960.7615966796875,-0.13023437559604645,3803,0
1437196030.73084784,207717,960.7413330078125,-0.1505468785762787,3804,0
1437196030.97001600,208078,960.7241821289062,-0.16765624284744263,3805,0
1437196031.32809186,208439,960.7286987304688,-0.16312499344348907,3805,0
1437196031.56019998,208842,960.7227783203125,-0.16906249523162842,3807,0
1437196031.80632782,209244,960.7313842773438,-0.16046874225139618,3808,0
1437196032.05047989,209686,960.7241821289062,-0.16765624284744263,3811,0
1437196032.42560387,210128,960.728515625,-0.1633593738079071,3812,0
1437196032.88767195,210571,960.7327880859375,-0.1590624898672104,3813,0
1437196033.30089188,210973,960.7383422851562,-0.15351562201976776,3816,0
1437196033.73218799,211375,960.7442626953125,-0.14757812023162842,3817,0
1437196034.22546792,211737,960.7311401367188,-0.1607031226158142,3817,0
1437196034.69848394,212099,960.7333374023438,-0.15851561725139618,3819,0
1437196035.11561584,212460,960.7369995117188,-0.1548437476158142,3819,0
1437196035.56513190,212822,960.7385864257812,-0.15328124165534973,3821,0
1437196035.88106799,213184,960.7427978515625,-0.14906249940395355,3822,0
1437196036.25513601,213546,960.7371826171875,-0.15468749403953552,3823,0
1437196036.49934793,213907,960.7227783203125,-0.16906249523162842,3824,0
1437196036.74337602,214268,960.7361450195312,-0.1557031273841858,3825,0
1437196037.07850790,214629,960.72998046875,-0.16187499463558197,3825,0
1437196037.39176798,214990,960.7241821289062,-0.16765624284744263,3827,0
1437196037.74581599,215352,960.7283325195312,-0.1635156273841858,3828,0
1437196037.98284793,215674,960.7216186523438,-0.17023436725139618,3829,0
1437196038.31401587,215995,960.739990234375,-0.15187498927116394,3830,0
1437196038.62731600,216317,960.7299194335938,-0.1619531214237213,3832,0
1437196038.98819590,216638,960.7313842773438,-0.16046874225139618,3832,0
1437196039.40236402,216919,960.7300415039062,-0.16179686784744263,3834,0
1437196039.81666398,217199,960.7229614257812,-0.16890624165534973,3835,0
1437196040.25786805,217481,960.7213745117188,-0.1704687476158142,3835,0
1437196040.59834385,217763,960.7213134765625,-0.17054687440395355,3837,0
1437196040.91008401,218044,960.7171020507812,-0.17476561665534973,3837,0
1437196041.19328403,218365,960.7171020507812,-0.17476561665534973,3838,0
1437196041.47332001,218686,960.7212524414062,-0.1706250011920929,3839,0
1437196041.70444393,219007,960.733642578125,-0.158203125,3839,0
1437196041.98548388,219370,960.7483520507812,-0.14351561665534973,3841,0
1437196042.36173201,219732,960.7456665039062,-0.14617186784744263,3842,0
1437196042.77481604,220094,960.7249755859375,-0.1668749898672104,3843,0
1437196043.19197583,220456,960.7341918945312,-0.1576562523841858,3843,0
1437196043.56618404,220817,960.719970703125,-0.171875,3844,0
1437196043.80927992,221178,960.7313842773438,-0.16046874225139618,3845,0
1437196044.06728792,221580,960.7327880859375,-0.1590624898672104,3846,0
1437196044.40058804,221983,960.7428588867188,-0.1489843726158142,3848,0
1437196044.74823594,222385,960.7384033203125,-0.15343749523162842,3850,0
1437196045.10176396,222786,960.7428588867188,-0.1489843726158142,3851,0
1437196045.51515198,223187,960.75,-0.1418749988079071,3852,0
1437196045.94621587,223589,960.728515625,-0.1633593738079071,3853,0
1437196046.37042403,223950,960.7341918945312,-0.1576562523841858,3854,0
1437196046.75551200,224312,960.7283325195312,-0.1635156273841858,3853,0
1437196047.08457994,224674,960.7423706054688,-0.14945311844348907,3855,0
1437196047.36381602,225035,960.751220703125,-0.140625,3857,0
1437196047.78885603,225396,960.7456665039062,-0.14617186784744263,3857,0
1437196048.13011193,225717,960.7427978515625,-0.14906249940395355,3857,0
1437196048.39620399,226038,960.7356567382812,-0.15617187321186066,3858,0
1437196048.71630383,226360,960.728515625,-0.1633593738079071,3859,0
1437196049.06645989,226641,960.7528686523438,-0.13898436725139618,3860,0
1437196049.32950783,226923,960.7514038085938,-0.1404687464237213,3861,0
1437196049.65374398,227205,960.7485961914062,-0.1432812511920929,3862,0
1437196049.89889193,227486,960.7699584960938,-0.12187499552965164,3863,0
1437196050.22506785,227767,960.7556762695312,-0.1361718773841858,3863,0
1437196050.63872385,228048,960.7633666992188,-0.12851561605930328,3864,0
1437196050.88329196,228329,960.758544921875,-0.13328124582767487,3864,0
1437196051.19938397,228611,960.7471923828125,-0.1446875035762787,3864,0
1437196051.63752389,228893,960.7628173828125,-0.1290625035762787,3866,0
1437196051.87722397,229174,960.7486572265625,-0.14320312440395355,3866,0
1437196052.46487999,229736,960.7657470703125,-0.12609374523162842,3868,0
1437196052.70604801,230017,960.7642211914062,-0.1276562511920929,3868,0
1437196052.95215201,230338,960.7598876953125,-0.13195312023162842,3870,0
1437196053.36727190,230660,960.7582397460938,-0.13359375298023224,3870,0
1437196053.68340802,230983,960.7756958007812,-0.11617187410593033,3871,0
1437196054.16054392,231304,960.7628784179688,-0.12898437678813934,3872,0
1437196054.51595592,231625,960.7542114257812,-0.13765624165534973,3873,0
1437196054.98494387,231946,960.7713623046875,-0.12046875059604645,3874,0
1437196055.37216783,232308,960.7612915039062,-0.13054686784744263,3875,0
1437196055.60618401,232669,960.7642211914062,-0.1276562511920929,3877,0
1437196056.01847982,233031,960.7598876953125,-0.13195312023162842,3877,0
1437196056.37346387,233393,960.7628173828125,-0.1290625035762787,3879,0
1437196056.78675199,233875,960.7685546875,-0.12328124791383743,3879,0
1437196057.13635182,234357,960.7516479492188,-0.14023436605930328,3880,0
1437196057.40004396,234879,960.7556762695312,-0.1361718773841858,3881,0
1437196057.74221587,235403,960.7528686523438,-0.13898436725139618,3883,0
1437196058.23648000,235844,960.744873046875,-0.14695312082767487,3885,0
1437196058.65045190,236286,960.75,-0.1418749988079071,3885,0
1437196059.06267595,236728,960.7413330078125,-0.1505468785762787,3886,0
1437196059.47914004,237170,960.7371826171875,-0.15468749403953552,3887,0
1437196059.92190003,237613,960.7399291992188,-0.15195311605930328,3888,0
1437196060.41423988,238055,960.75,-0.1418749988079071,3889,0
1437196060.84549594,238457,960.7628173828125,-0.1290625035762787,3891,0
1437196061.13346004,238819,960.733642578125,-0.158203125,3892,0
1437196061.54765987,239180,960.7470092773438,-0.14484374225139618,3892,0
1437196061.96090794,239542,960.7385864257812,-0.15328124165534973,3893,0
1437196062.37502003,239904,960.7427368164062,-0.1491406261920929,3894,0
1437196062.78812385,240266,960.7556762695312,-0.1361718773841858,3896,0
1437196063.10525990,240628,960.7470703125,-0.14476561546325684,3896,0
1437196063.44049191,240989,960.732421875,-0.1594531238079071,3897,0
1437196063.72357583,241351,960.7286376953125,-0.16320312023162842,3898,0
1437196064.05771589,241712,960.7199096679688,-0.17195312678813934,3898,0
1437196064.44599199,242075,960.719970703125,-0.171875,3900,0
1437196064.92301989,242437,960.7271118164062,-0.1647656261920929,3901,0
1437196065.29731989,242799,960.7327880859375,-0.1590624898672104,3902,0
1437196065.53940797,243160,960.7361450195312,-0.1557031273841858,3903,0
1437196065.89356399,243522,960.7484741210938,-0.14335937798023224,3903,0
1437196066.33174396,243844,960.7185668945312,-0.1732812523841858,3904,0
1437196066.57382393,244166,960.728515625,-0.1633593738079071,3906,0
1437196066.81986403,244487,960.7249755859375,-0.1668749898672104,3907,0
1437196067.13702393,244808,960.7255859375,-0.16624999046325684,3907,0
1437196067.57419205,245089,960.7142944335938,-0.1775781214237213,3907,0
1437196067.82155204,245371,960.7262573242188,-0.16562499105930328,3908,0
1437196068.16444802,245652,960.7227783203125,-0.16906249523162842,3909,0
1437196068.43655992,245933,960.7216796875,-0.17015624046325684,3910,0
1437196068.68675995,246216,960.7350463867188,-0.1567968726158142,3912,0
1437196069.06682801,246497,960.7166137695312,-0.1752343773841858,3911,0
1437196069.47709203,246778,960.7333374023438,-0.15851561725139618,3913,0
1437196069.89019585,247059,960.7249145507812,-0.16695311665534973,3914,0
1437196070.24431992,247339,960.7257080078125,-0.1661718785762787,3914,0
1437196070.65848804,247621,960.7211303710938,-0.17070312798023224,3916,0
1437196071.07181191,247902,960.741455078125,-0.150390625,3915,0
1437196071.43919587,248184,960.719970703125,-0.171875,3916,0
1437196071.72598791,248465,960.7243041992188,-0.16757811605930328,3917,0
1437196071.95611191,248867,960.7257080078125,-0.1661718785762787,3917,0
1437196072.30717182,249269,960.7433471679688,-0.14851562678813934,3919,0
1437196072.55629182,249670,960.7386474609375,-0.1532031148672104,3921,0
1437196072.79043603,250192,960.7385864257812,-0.15328124165534973,3921,0
1437196073.03724790,250715,960.7099609375,-0.18187499046325684,3923,0
1437196073.68583202,251278,960.7313842773438,-0.16046874225139618,3924,0
1437196074.09897995,251759,960.7449951171875,-0.14687499403953552,3926,0
1437196074.49407196,252181,960.7400512695312,-0.1517968773841858,3927,0
1437196075.00241995,252603,960.7349853515625,-0.15687499940395355,3929,0
1437196075.47849584,252985,960.7450561523438,-0.14679686725139618,3930,0
1437196075.83276391,253367,960.7433471679688,-0.14851562678813934,3930,0
1437196076.24596786,253748,960.7442626953125,-0.14757812023162842,3931,0
1437196076.71897197,254130,960.7371826171875,-0.15468749403953552,3933,0
1437196077.07222795,254511,960.7442626953125,-0.14757812023162842,3934,0
1437196077.43029189,254894,960.7333374023438,-0.15851561725139618,3935,0
1437196077.90068793,255276,960.7442626953125,-0.14757812023162842,3936,0
1437196078.35080385,255657,960.7385864257812,-0.15328124165534973,3937,0
1437196078.57887197,256038,960.7442626953125,-0.14757812023162842,3938,0
1437196078.82206798,256419,960.7366333007812,-0.15523436665534973,3939,0
1437196079.09597993,256801,960.735595703125,-0.15625,3939,0
1437196079.55632782,257183,960.7400512695312,-0.1517968773841858,3939,0
1437196079.89840794,257565,960.7413330078125,-0.1505468785762787,3941,0
1437196080.48266792,257946,960.7456665039062,-0.14617186784744263,3942,0
1437196080.72970390,258328,960.7356567382812,-0.15617187321186066,3943,0
1437196081.11480403,258709,960.7484741210938,-0.14335937798023224,3946,0
1437196081.44917202,259090,960.7428588867188,-0.1489843726158142,3946,0
1437196081.83424401,259473,960.739990234375,-0.15187498927116394,3947,0
1437196098.25358391,15986,960.708740234375,-0.02890624850988388,3945,0
1437196098.56892800,16228,960.7342529296875,-0.003359374823048711,3945,0
1437196098.81515598,16469,960.71875,-0.0189062487334013,3946,0
1437196099.13416004,16711,960.739990234375,0.002343749860301614,3946,0
1437196099.49229193,16951,960.7350463867188,-0.0025781248696148396,3947,0
1437196099.81153202,17193,960.7171020507812,-0.020546874031424522,3945,0
1437196100.06267190,17434,960.7174072265625,-0.020234374329447746,3946,0
1437196100.37778783,17675,960.7227783203125,-0.014843749813735485,3948,0
1437196100.79207182,17916,960.7216796875,-0.015937499701976776,3946,0
1437196101.26518798,18158,960.7249145507812,-0.012734374962747097,3945,0
1437196101.67717195,18399,960.7227783203125,-0.014843749813735485,3947,0
1437196102.11755204,18760,960.7042236328125,-0.03343749791383743,3947,0
1437196102.55576396,19122,960.7070922851562,-0.030546873807907104,3947,0
1437196102.89278793,19483,960.719970703125,-0.017656249925494194,3948,0
1437196103.12398386,19844,960.7183227539062,-0.019296875223517418,3948,0
1437196103.40201998,20207,960.7185668945312,-0.019062500447034836,3948,0
1437196103.65099597,20695,960.7028198242188,-0.034843750298023224,3949,0
1437196103.89017200,21177,960.7113037109375,-0.02632812410593033,3951,0
1437196104.13932800,21780,960.7185668945312,-0.019062500447034836,3952,0
1437196104.62764001,22423,960.6986694335938,-0.03898437321186066,3953,0
1437196105.24671984,23066,960.7056884765625,-0.0319531224668026,3954,0
1437196105.88900805,23628,960.7185668945312,-0.019062500447034836,3955,0
1437196106.27919197,24110,960.7266845703125,-0.010937499813735485,3957,0
1437196106.78937602,24593,960.713623046875,-0.023984374478459358,3958,0
1437196107.26269603,25015,960.7166137695312,-0.021015625447034836,3957,0
1437196107.61579204,25436,960.7141723632812,-0.0234375,3959,0
1437196108.02992392,25857,960.7171630859375,-0.02046874910593033,3960,0
1437196108.54216003,26239,960.7171630859375,-0.02046874910593033,3961,0
1437196108.95637584,26622,960.7156982421875,-0.021953124552965164,3963,0
1437196109.47260785,27004,960.712890625,-0.0247656237334013,3963,0
1437196109.71264791,27384,960.7313842773438,-0.00624999962747097,3963,0
1437196109.96013999,27766,960.7184448242188,-0.019218750298023224,3964,0
1437196110.51603985,28147,960.7113037109375,-0.02632812410593033,3964,0
1437196110.86917186,28530,960.7257080078125,-0.011953124776482582,3967,0
1437196111.19533992,28912,960.7185668945312,-0.019062500447034836,3967,0
1437196111.54944396,29293,960.7243041992188,-0.01335937436670065,3968,0
1437196112.02647996,29675,960.7213745117188,-0.016249999403953552,3970,0
1437196112.43665600,30057,960.737060546875,-0.0005468750023283064,3971,0
1437196112.89024782,30438,960.7237548828125,-0.013906249776482582,3973,0
1437196113.31403589,30821,960.7416381835938,0.003984374925494194,3973,0
1437196113.64831185,31202,960.73828125,0.0006249999860301614,3973,0
1437196113.89032793,31584,960.737060546875,-0.0005468750023283064,3973,0
1437196114.24155593,31965,960.7185668945312,-0.019062500447034836,3974,0
1437196114.68472791,32346,960.7227783203125,-0.014843749813735485,3975,0
1437196114.92591596,32729,960.7300415039062,-0.007578124757856131,3975,0
1437196115.27596402,33110,960.7257080078125,-0.011953124776482582,3977,0
1437196115.71425200,33492,960.7299194335938,-0.007734374608844519,3979,0
1437196116.10328388,33874,960.7399291992188,0.0022656249348074198,3979,0
1437196116.54052401,34214,960.7427978515625,0.005156249739229679,3981,0
1437196116.78759193,34556,960.7433471679688,0.005703124683350325,3982,0
1437196117.13764787,34897,960.7285766601562,-0.009062499739229679,3981,0
1437196117.57596803,35239,960.7556762695312,0.018046874552965164,3983,0
1437196117.82301998,35581,960.7333374023438,-0.0042968750931322575,3984,0
1437196118.17315984,35922,960.7433471679688,0.005703124683350325,3984,0
1437196118.61556387,36264,960.7385864257812,0.0009374999790452421,3986,0
1437196118.96244383,36606,960.7327880859375,-0.004843750037252903,3985,0
1437196119.20174003,36947,960.7399291992188,0.0022656249348074198,3987,0
1437196119.56668782,37288,960.7356567382812,-0.001953125,3988,0
1437196119.89386392,37629,960.7271118164062,-0.010546875186264515,3988,0
1437196120.16401601,37972,960.7369995117188,-0.0006249999860301614,3990,0
1437196120.56019187,38312,960.7528686523438,0.015234374441206455,3991,0
1437196120.89724803,38654,960.756591796875,0.018984373658895493,3991,0
1437196121.19843197,38995,960.7333374023438,-0.0042968750931322575,3991,0
1437196121.54153991,39335,960.7313842773438,-0.00624999962747097,3993,0
1437196121.89966798,39677,960.7327880859375,-0.004843750037252903,3994,0
1437196122.24480796,39979,960.7385864257812,0.0009374999790452421,3995,0
1437196122.61899185,40280,960.7249145507812,-0.012734374962747097,3993,0
1437196122.93530393,40582,960.7366333007812,-0.001015624962747097,3995,0
1437196123.34829593,40883,960.7485961914062,0.010937499813735485,3997,0
1437196123.69347596,41184,960.7516479492188,0.013984374701976776,3998,0
1437196124.02364397,41485,960.7498779296875,0.012265624478459358,4000,0
1437196124.26992798,41787,960.7442626953125,0.006640624720603228,3999,0
1437196124.61393189,42089,960.737060546875,-0.0005468750023283064,4000,0
1437196124.85201597,42391,960.7484741210938,0.010859374888241291,4001,0
1437196125.10713196,42691,960.7283325195312,-0.009296874515712261,4002,0
1437196125.44131184,42993,960.7316284179688,-0.006015624850988388,4003,0
1437196125.71843982,43294,960.73828125,0.0006249999860301614,4004,0
1437196126.07168388,43596,960.7350463867188,-0.0025781248696148396,4003,0
1437196126.30258393,43898,960.7385864257812,0.0009374999790452421,4004,0
1437196126.65371203,44200,960.7313842773438,-0.00624999962747097,4005,0
1437196126.89386392,44502,960.7456665039062,0.008046874776482582,4007,0
1437196127.13998389,44803,960.7313842773438,-0.00624999962747097,4007,0
1437196127.48410392,45105,960.7428588867188,0.005234374664723873,4007,0
1437196127.72425199,45406,960.7427978515625,0.005156249739229679,4009,0
1437196127.97043991,45708,960.7400512695312,0.0024218750186264515,4010,0
1437196128.62548399,46010,960.7227783203125,-0.014843749813735485,4010,0
1437196128.87369204,46312,960.7271118164062,-0.010546875186264515,4011,0
1437196129.25774789,46613,960.7470703125,0.00945312436670065,4013,0
1437196129.61900401,46915,960.7384033203125,0.0007812499534338713,4014,0
1437196129.86617184,47216,960.7400512695312,0.0024218750186264515,4014,0
1437196130.24429989,47557,960.7327880859375,-0.004843750037252903,4014,0
1437196130.59843588,47900,960.7216796875,-0.015937499701976776,4015,0
1437196131.01155591,48241,960.7327880859375,-0.004843750037252903,4016,0
1437196131.48468804,48582,960.75,0.012343749403953552,4017,0
1437196131.77777195,48964,960.735595703125,-0.002031249925494194,4017,0
1437196132.10408401,49346,960.7584838867188,0.0208593737334013,4020,0
1437196132.33906794,49728,960.7257080078125,-0.011953124776482582,4020,0
1437196132.77518392,50150,960.7433471679688,0.005703124683350325,4023,0
1437196133.11032796,50571,960.7456665039062,0.008046874776482582,4023,0
1437196133.35143590,50993,960.7211303710938,-0.016484374180436134,4023,0
1437196133.70159984,51416,960.728515625,-0.009140624664723873,4026,0
1437196134.04364800,51838,960.7185668945312,-0.019062500447034836,4026,0
1437196134.55310798,52260,960.7171020507812,-0.020546874031424522,4027,0
1437196134.93312383,52682,960.7266845703125,-0.010937499813735485,4028,0
1437196135.25828004,53064,960.7299194335938,-0.007734374608844519,4029,0
1437196135.62150383,53445,960.7313232421875,-0.0063281250186264515,4030,0
1437196136.01258802,53828,960.728515625,-0.009140624664723873,4030,0
1437196136.35067201,54169,960.7413940429688,0.0037499999161809683,4032,0
1437196136.72616005,54510,960.7399291992188,0.0022656249348074198,4032,0
1437196137.00519204,54852,960.7366333007812,-0.001015624962747097,4032,0
1437196137.32959986,55154,960.7450561523438,0.0074218749068677425,4034,0
1437196137.66330004,55456,960.7327880859375,-0.004843750037252903,4035,0
1437196138.01047182,55757,960.739990234375,0.002343749860301614,4036,0
1437196138.24862790,56059,960.7466430664062,0.008984374813735485,4038,0
1437196138.57284784,56360,960.7456665039062,0.008046874776482582,4037,0
1437196138.91693592,56662,960.7413940429688,0.0037499999161809683,4038,0
1437196139.14517593,56964,960.7599487304688,0.022343749180436134,4039,0
1437196139.55858803,57265,960.758544921875,0.020937498658895493,4039,0
1437196140.01133204,57567,960.7399291992188,0.0022656249348074198,4041,0
1437196140.32643604,57869,960.756591796875,0.018984373658895493,4041,0
1437196140.76976800,58170,960.7598876953125,0.02226562425494194,4041,0
1437196141.00768399,58472,960.7542114257812,0.01656249910593033,4041,0
1437196141.36189985,58774,960.7612915039062,0.023671874776482582,4042,0
1437196141.79921603,59075,960.7484741210938,0.010859374888241291,4042,0
1437196142.03815603,59376,960.7385864257812,0.0009374999790452421,4043,0
1437196142.28617597,59718,960.7525024414062,0.014843749813735485,4044,0
1437196142.73152804,60060,960.7598876953125,0.02226562425494194,4045,0
1437196142.97758794,60401,960.7582397460938,0.020624998956918716,4045,0
1437196143.35389185,60743,960.7612915039062,0.023671874776482582,4046,0
1437196143.69690800,61085,960.794189453125,0.05656249821186066,4048,0
1437196143.94711590,61426,960.7662353515625,0.028593748807907104,4049,0
1437196144.32718801,61808,960.7587280273438,0.02109375037252903,4049,0
1437196144.80644798,62190,960.7484741210938,0.010859374888241291,4049,0
1437196145.04544401,62572,960.7427978515625,0.005156249739229679,4050,0
1437196145.36359191,62954,960.7542724609375,0.016640624031424522,4050,0
1437196145.85678387,63335,960.751220703125,0.013593750074505806,4051,0
1437196146.23703599,63717,960.7341918945312,-0.0034374999813735485,4052,0
1437196146.49809194,64100,960.7227783203125,-0.014843749813735485,4053,0
1437196146.84433198,64482,960.72998046875,-0.007656249683350325,4053,0
1437196147.22736788,64864,960.737060546875,-0.0005468750023283064,4054,0
1437196147.67772388,65246,960.7213745117188,-0.016249999403953552,4055,0
1437196147.99389601,65628,960.7341918945312,-0.0034374999813735485,4056,0
1437196148.47088790,66010,960.7249145507812,-0.012734374962747097,4057,0
1437196148.77403998,66392,960.7324829101562,-0.005156249739229679,4057,0
1437196149.11213994,66773,960.7356567382812,-0.001953125,4057,0
1437196149.33923197,67154,960.7241821289062,-0.013437499292194843,4058,0
1437196149.70743585,67536,960.7185668945312,-0.019062500447034836,4059,0
1437196150.09448791,67919,960.7216796875,-0.015937499701976776,4061,0
1437196150.47769594,68260,960.7132568359375,-0.02437499910593033,4061,0
1437196150.82297182,68602,960.7227783203125,-0.014843749813735485,4062,0
1437196151.20819998,68944,960.7171020507812,-0.020546874031424522,4063,0
1437196151.53734803,69286,960.7185668945312,-0.019062500447034836,4064,0
1437196151.79122782,69628,960.728515625,-0.009140624664723873,4064,0
1437196152.13553596,69970,960.7184448242188,-0.019218750298023224,4064,0
1437196152.50554800,70271,960.7271118164062,-0.010546875186264515,4066,0
1437196152.85579991,70572,960.735595703125,-0.002031249925494194,4067,0
1437196153.17193198,70874,960.7156982421875,-0.021953124552965164,4067,0
1437196153.68418789,71175,960.7299194335938,-0.007734374608844519,4068,0
1437196154.05957985,71476,960.7224731445312,-0.015156249515712261,4070,0
1437196154.47648001,71778,960.7162475585938,-0.021406250074505806,4069,0
1437196154.82767200,72080,960.72998046875,-0.007656249683350325,4070,0
1437196155.24186802,72381,960.7241821289062,-0.013437499292194843,4070,0
1437196155.61893201,72724,960.7127685546875,-0.024843748658895493,4070,0
1437196155.86313200,73066,960.7255859375,-0.012031249701976776,4073,0
1437196156.20821595,73407,960.7327880859375,-0.004843750037252903,4073,0
1437196156.54775596,73749,960.7216186523438,-0.01601562462747097,4073,0
1437196156.89063597,74211,960.7327880859375,-0.004843750037252903,4075,0
1437196157.13068390,74671,960.7433471679688,0.005703124683350325,4077,0
1437196157.37586784,75173,960.7384033203125,0.0007812499534338713,4078,0
1437196157.92397594,75675,960.7356567382812,-0.001953125,4078,0
1437196158.34615588,76178,960.7442626953125,0.006640624720603228,4079,0
1437196158.78442001,76600,960.7400512695312,0.0024218750186264515,4080,0
1437196159.29849601,77022,960.7428588867188,0.005234374664723873,4082,0
1437196159.64061999,77404,960.75,0.012343749403953552,4082,0
1437196159.99888396,77785,960.7428588867188,0.005234374664723873,4084,0
1437196160.47202802,78126,960.737060546875,-0.0005468750023283064,4084,0
1437196160.78915191,78469,960.7482299804688,0.010625000111758709,4085,0
1437196161.03229189,78810,960.7466430664062,0.008984374813735485,4086,0
1437196161.35044789,79151,960.7449951171875,0.0073437499813735485,4087,0
1437196161.68454385,79492,960.75,0.012343749403953552,4088,0
1437196162.03166389,79833,960.7299194335938,-0.007734374608844519,4089,0
1437196162.38698792,80175,960.7313842773438,-0.00624999962747097,4089,0
1437196162.71991587,80517,960.75,0.012343749403953552,4089,0
1437196163.06704402,80859,960.73828125,0.0006249999860301614,4090,0
1437196163.42131591,81200,960.7416381835938,0.003984374925494194,4091,0
1437196163.75541186,81541,960.74169921875,0.004062499850988388,4091,0
1437196164.09918785,81883,960.7399291992188,0.0022656249348074198,4092,0
1437196164.37473989,82225,960.7470092773438,0.009374999441206455,4092,0
1437196164.76478386,82567,960.7485961914062,0.010937499813735485,4093,0
1437196165.24203205,82908,960.758544921875,0.020937498658895493,4094,0
1437196165.65211582,83250,960.7628173828125,0.025156250223517418,4095,0
1437196166.02953982,83592,960.7456665039062,0.008046874776482582,4096,0
1437196166.27643204,83933,960.7428588867188,0.005234374664723873,4097,0
1437196166.68567991,84275,960.7371826171875,-0.00046874998952262104,4097,0
1437196188.36425185,17754,960.7350463867188,-0.009687500074505806,4004,0
1437196188.57645202,17995,960.7300415039062,-0.014687499962747097,4003,0
1437196188.88559604,18237,960.7341918945312,-0.010546875186264515,4004,0
1437196189.14167595,18478,960.7386474609375,-0.006093749776482582,4004,0
1437196189.47576404,18719,960.7386474609375,-0.006093749776482582,4003,0
1437196189.71500397,18959,960.7482299804688,0.0035156249068677425,4005,0
1437196190.13107586,19200,960.7486572265625,0.00390625,4003,0
1437196190.37326789,19442,960.7324829101562,-0.012265624478459358,4003,0
1437196190.69229198,19683,960.7385864257812,-0.006171874701976776,4002,0
1437196191.04338002,19924,960.7456665039062,0.0009374999790452421,4002,0
1437196191.34655595,20205,960.7470092773438,0.0022656249348074198,4002,0
1437196191.62670398,20486,960.728515625,-0.016249999403953552,4002,0
1437196191.89029193,20768,960.7271118164062,-0.017656249925494194,4000,0
1437196192.16802382,21049,960.7286376953125,-0.016093749552965164,4000,0
1437196192.40711594,21330,960.7399291992188,-0.004843750037252903,4002,0
1437196192.76532793,21732,960.7213745117188,-0.023359375074505806,4000,0
1437196192.99723196,22134,960.753173828125,0.008437499403953552,4000,0
1437196193.24345589,22536,960.7357788085938,-0.008984374813735485,4001,0
1437196193.48357987,22937,960.7327880859375,-0.011953124776482582,4001,0
1437196193.84563184,23338,960.7241821289062,-0.020546874031424522,4002,0
1437196194.32276392,23739,960.733154296875,-0.011562500149011612,4000,0
1437196194.65713191,24100,960.7216186523438,-0.023125000298023224,4000,0
1437196195.04916000,24462,960.7285766601562,-0.016171874478459358,4000,0
1437196195.38742399,24824,960.728515625,-0.016249999403953552,4000,0
1437196195.77243996,25186,960.7271118164062,-0.017656249925494194,4000,0
1437196196.11065602,25547,960.7349853515625,-0.009765625,4001,0
1437196196.49079204,25908,960.7286987304688,-0.01601562462747097,4001,0
1437196196.92910790,26270,960.71435546875,-0.030390623956918716,4000,0
1437196197.17511582,26632,960.7255859375,-0.01914062537252903,4000,0
1437196197.52527189,26994,960.7271118164062,-0.017656249925494194,4001,0
1437196197.99845600,27356,960.7286376953125,-0.016093749552965164,4001,0
1437196198.45663595,27717,960.7299194335938,-0.014843749813735485,4000,0
1437196198.72271204,28078,960.7413940429688,-0.003359374823048711,4000,0
1437196198.99886799,28439,960.7257080078125,-0.019062500447034836,4000,0
1437196199.38689995,28802,960.7227783203125,-0.021953124552965164,4001,0
1437196199.82521987,29124,960.7213134765625,-0.0234375,4002,0
1437196200.06426787,29446,960.7241821289062,-0.020546874031424522,4001,0
1437196200.32039595,29767,960.7261352539062,-0.018593749031424522,4002,0
1437196200.58244395,30088,960.7227783203125,-0.021953124552965164,4001,0
1437196200.94820404,30409,960.7213745117188,-0.023359375074505806,4001,0
1437196201.28579187,30731,960.719970703125,-0.0247656237334013,4000,0
1437196201.56792784,31053,960.72998046875,-0.014765624888241291,4000,0
1437196201.90307593,31375,960.7349853515625,-0.009765625,4001,0
1437196202.28738403,31696,960.7274780273438,-0.017265625298023224,4001,0
1437196202.76151586,31978,960.7271118164062,-0.017656249925494194,4002,0
1437196203.21865988,32259,960.7313842773438,-0.01335937436670065,4001,0
1437196203.49168801,32541,960.7427978515625,-0.001953125,4002,0
1437196203.73070002,32822,960.7099609375,-0.03476562350988388,4000,0
1437196204.15301991,33104,960.7213745117188,-0.023359375074505806,4001,0
1437196204.47134399,33425,960.7116088867188,-0.03312499821186066,4003,0
1437196204.71510386,33747,960.6950073242188,-0.04976562410593033,4003,0
1437196205.04123592,34068,960.6699829101562,-0.07476562261581421,4002,0
1437196205.28561592,34390,960.6785888671875,-0.06617187708616257,4003,0
1437196205.60448003,34752,960.6649780273438,-0.07976562529802322,4003,0
1437196206.07863998,35114,960.6513671875,-0.09335937350988388,4003,0
1437196206.45711994,35475,960.6414794921875,-0.10328124463558197,4002,0
1437196206.70296001,35837,960.6383666992188,-0.10640624910593033,4003,0
1437196207.11425996,36198,960.682861328125,-0.06187499687075615,4003,0
1437196207.46921182,36561,960.7227783203125,-0.021953124552965164,4003,0
1437196207.90751600,36923,960.7399291992188,-0.004843750037252903,4002,0
1437196208.14463592,37284,960.7425537109375,-0.0021875000093132257,4002,0
1437196208.39121199,37646,960.7484130859375,0.0036718749906867743,4002,0
1437196208.76880789,38007,960.7682495117188,0.023515624925494194,4003,0
1437196209.12308788,38369,960.7565307617188,0.011796874925494194,4001,0
1437196209.53723192,38732,960.7427978515625,-0.001953125,4000,0
1437196209.98051596,39093,960.751708984375,0.006953124888241291,4000,0
1437196210.21551991,39454,960.7528076171875,0.008046874776482582,4000,0
1437196210.57311201,39815,960.7498779296875,0.005156249739229679,3998,0
1437196210.98281193,40176,960.7598876953125,0.015156249515712261,3997,0
1437196211.39714789,40538,960.7633666992188,0.018593749031424522,3998,0
1437196211.75511599,40899,960.7514038085938,0.006640624720603228,3995,0
1437196212.15529203,41261,960.7628173828125,0.018046874552965164,3994,0
1437196212.39246798,41623,960.7456665039062,0.0009374999790452421,3993,0
1437196212.63160396,41984,960.7473754882812,0.0026562500279396772,3991,0
1437196212.90380383,42346,960.74169921875,-0.003046874888241291,3991,0
1437196213.26069188,42708,960.7399291992188,-0.004843750037252903,3989,0
1437196213.60590386,43030,960.7482299804688,0.0035156249068677425,3989,0
1437196213.97616792,43352,960.733154296875,-0.011562500149011612,3988,0
1437196214.36023593,43673,960.7516479492188,0.006874999962747097,3986,0
1437196214.71046400,43995,960.7271118164062,-0.017656249925494194,3985,0
1437196215.12454391,44317,960.7342529296875,-0.010468749329447746,3984,0
1437196215.53925991,44640,960.7266235351562,-0.018124999478459358,3984,0
1437196215.90089989,44960,960.7216796875,-0.02304687537252903,3983,0
1437196216.21899986,45281,960.7243041992188,-0.02046874910593033,3982,0
1437196216.46121192,45644,960.7341918945312,-0.010546875186264515,3982,0
1437196216.83989191,46005,960.7257080078125,-0.019062500447034836,3981,0
1437196217.21745205,46367,960.7313842773438,-0.01335937436670065,3980,0
1437196217.45863986,46728,960.732421875,-0.012343749403953552,3980,0
1437196217.87287188,47091,960.7299194335938,-0.014843749813735485,3979,0
1437196218.25579190,47452,960.7213745117188,-0.023359375074505806,3978,0
1437196218.49793196,47814,960.7341918945312,-0.010546875186264515,3977,0
1437196218.87361193,48177,960.7199096679688,-0.024843748658895493,3977,0
1437196219.11133194,48538,960.7350463867188,-0.009687500074505806,3975,0
1437196219.46848392,48900,960.7286987304688,-0.01601562462747097,3975,0
1437196219.90558791,49221,960.7371826171875,-0.007578124757856131,3973,0
1437196220.14457989,49542,960.7241821289062,-0.020546874031424522,3973,0
1437196220.40112400,49865,960.7185668945312,-0.02617187425494194,3973,0
1437196220.73486400,50186,960.7271118164062,-0.017656249925494194,3973,0
1437196221.01104784,50468,960.732421875,-0.012343749403953552,3973,0
1437196221.36505604,50748,960.7385864257812,-0.006171874701976776,3972,0
1437196221.59541988,51029,960.719970703125,-0.0247656237334013,3970,0
1437196221.94645190,51310,960.72998046875,-0.014765624888241291,3970,0
1437196222.19561982,51593,960.733154296875,-0.011562500149011612,3970,0
1437196222.42976785,51875,960.7171020507812,-0.027656249701976776,3970,0
1437196222.70388794,52155,960.7227783203125,-0.021953124552965164,3970,0
1437196223.12796783,52437,960.7271118164062,-0.017656249925494194,3969,0
1437196223.51315999,52718,960.7341918945312,-0.010546875186264515,3967,0
1437196223.84231186,52999,960.7111206054688,-0.03359374776482582,3967,0
1437196224.12343192,53281,960.7313842773438,-0.01335937436670065,3967,0
1437196224.43947196,53562,960.7255859375,-0.01914062537252903,3967,0
1437196224.81380391,53843,960.7356567382812,-0.009062499739229679,3966,0
1437196225.15875196,54125,960.7213745117188,-0.023359375074505806,3967,0
1437196225.47502804,54407,960.7327880859375,-0.011953124776482582,3965,0
1437196225.99407601,54730,960.7371826171875,-0.007578124757856131,3965,0
1437196226.23526001,55051,960.7156982421875,-0.029062500223517418,3963,0
1437196226.64638805,55372,960.7255859375,-0.01914062537252903,3964,0
1437196226.98656392,55695,960.7157592773438,-0.028984373435378075,3962,0
1437196227.22675991,56136,960.7243041992188,-0.02046874910593033,3961,0
1437196227.60591984,56577,960.7233276367188,-0.021406250074505806,3961,0
1437196227.99296784,57058,960.7325439453125,-0.012187499552965164,3959,0
1437196228.22836804,57539,960.7171020507812,-0.027656249701976776,3958,0
1437196228.53327203,58021,960.7300415039062,-0.014687499962747097,3957,0
1437196229.10448003,58504,960.70849609375,-0.036249998956918716,3956,0
1437196229.44664383,58926,960.7199096679688,-0.024843748658895493,3955,0
1437196229.94793582,59348,960.7249145507812,-0.019843749701976776,3955,0
1437196230.23596382,59729,960.7241821289062,-0.020546874031424522,3953,0
1437196230.70818400,60071,960.719970703125,-0.0247656237334013,3952,0
1437196231.01435590,60414,960.7224731445312,-0.02226562425494194,3950,0
1437196231.33364797,60756,960.7184448242188,-0.02632812410593033,3950,0
1437196231.88973999,61096,960.7271118164062,-0.017656249925494194,3950,0
1437196232.15276790,61437,960.7257080078125,-0.019062500447034836,3949,0
1437196232.40116787,61778,960.7299194335938,-0.014843749813735485,3948,0
1437196232.74308801,62120,960.7271118164062,-0.017656249925494194,3946,0
1437196233.02153993,62461,960.7061767578125,-0.038593750447034836,3945,0
1437196233.40529990,62803,960.7074584960938,-0.03726562485098839,3945,0
1437196233.81358385,63145,960.7241821289062,-0.020546874031424522,3944,0
1437196234.19171190,63486,960.7085571289062,-0.03617187589406967,3942,0
1437196234.43899989,63828,960.7233276367188,-0.021406250074505806,3942,0
1437196235.02036786,64169,960.7116088867188,-0.03312499821186066,3941,0
1437196235.26212001,64510,960.7249145507812,-0.019843749701976776,3942,0
1437196235.50223184,64853,960.7086791992188,-0.03609374910593033,3939,0
1437196235.75655603,65194,960.7241821289062,-0.020546874031424522,3939,0
1437196236.23645997,65535,960.7249755859375,-0.019765624776482582,3938,0
1437196236.68378782,65877,960.7127685546875,-0.0319531224668026,3937,0
1437196236.91382003,66218,960.7271118164062,-0.017656249925494194,3937,0
1437196237.32697988,66560,960.7271118164062,-0.017656249925494194,3936,0
1437196237.61518788,66901,960.7227783203125,-0.021953124552965164,3934,0
1437196238.09845185,67244,960.7183227539062,-0.026406249031424522,3934,0
1437196238.44341183,67586,960.7127685546875,-0.0319531224668026,3934,0
1437196238.84555602,67927,960.719970703125,-0.0247656237334013,3932,0
1437196239.19192791,68269,960.7241821289062,-0.020546874031424522,3931,0
1437196239.43887186,68610,960.72998046875,-0.014765624888241291,3930,0
1437196239.75393200,68953,960.7211303710938,-0.023593749850988388,3929,0
1437196240.19724393,69294,960.719970703125,-0.0247656237334013,3928,0
1437196240.43437195,69635,960.7156982421875,-0.029062500223517418,3927,0
1437196240.79187202,69977,960.7141723632812,-0.030546873807907104,3926,0
1437196241.13859582,70319,960.7185668945312,-0.02617187425494194,3926,0
1437196241.51877189,70662,960.728515625,-0.016249999403953552,3925,0
1437196241.84796405,71004,960.7156982421875,-0.029062500223517418,3925,0
1437196242.12608004,71345,960.7227783203125,-0.021953124552965164,3923,0
1437196242.50928783,71686,960.7257080078125,-0.019062500447034836,3922,0
1437196242.86028790,72028,960.7156982421875,-0.029062500223517418,3920,0
1437196243.20963597,72370,960.7237548828125,-0.021015625447034836,3920,0
1437196243.58952785,72713,960.7056274414062,-0.039140623062849045,3918,0
1437196243.92376399,73054,960.7099609375,-0.03476562350988388,3918,0
1437196244.22790003,73396,960.7070922851562,-0.03765624761581421,3917,0
1437196244.47594404,73736,960.7098999023438,-0.034843750298023224,3917,0
1437196244.71517205,74077,960.728515625,-0.016249999403953552,3916,0
1437196245.06722784,74419,960.7350463867188,-0.009687500074505806,3914,0
1437196245.45237589,74761,960.7349243164062,-0.009843749925494194,3914,0
1437196245.68951583,75102,960.7227783203125,-0.021953124552965164,3912,0
1437196246.10335588,75444,960.731201171875,-0.013515625149011612,3912,0
1437196246.44072390,75786,960.7014770507812,-0.043281249701976776,3910,0
1437196246.68505192,76129,960.7227783203125,-0.021953124552965164,3909,0
1437196247.10015202,76470,960.7056274414062,-0.039140623062849045,3909,0
1437196247.41615605,76813,960.7012939453125,-0.043437499552965164,3907,0
1437196247.76027584,77154,960.7071533203125,-0.037578124552965164,3907,0
1437196248.09151196,77495,960.7085571289062,-0.03617187589406967,3906,0
1437196248.51189995,77837,960.7149658203125,-0.029765624552965164,3905,0
1437196248.75173593,78179,960.6982421875,-0.04648437350988388,3905,0
1437196249.13081193,78521,960.7124633789062,-0.03226562589406967,3904,0
1437196249.48421597,78862,960.7070922851562,-0.03765624761581421,3903,0
1437196249.89723587,79204,960.7171020507812,-0.027656249701976776,3902,0
1437196250.31142402,79545,960.699951171875,-0.04476562514901161,3901,0
1437196250.62853193,79886,960.7056884765625,-0.0390625,3900,0
1437196250.95784402,80228,960.7249145507812,-0.019843749701976776,3900,0
1437196251.23483205,80570,960.7216796875,-0.02304687537252903,3898,0
1437196251.58902001,80912,960.7142944335938,-0.03046874888241291,3897,0
1437196251.82011604,81253,960.7142944335938,-0.03046874888241291,3897,0
1437196252.23326397,81594,960.7099609375,-0.03476562350988388,3897,0
1437196252.47640800,81937,960.7213745117188,-0.023359375074505806,3895,0
1437196252.79742384,82279,960.7274780273438,-0.017265625298023224,3894,0
1437196253.31070399,82621,960.7085571289062,-0.03617187589406967,3893,0
1437196253.62690783,82962,960.7127075195312,-0.03203124925494194,3894,0
1437196254.03997993,83303,960.7171630859375,-0.027578124776482582,3892,0
1437196254.45414400,83645,960.7166748046875,-0.028046874329447746,3891,0
1437196254.77130795,83986,960.7099609375,-0.03476562350988388,3890,0
1437196255.10544801,84328,960.7185668945312,-0.02617187425494194,3890,0
1437196255.38545990,84669,960.7156982421875,-0.029062500223517418,3888,0
1437196255.69973183,85010,960.7241821289062,-0.020546874031424522,3889,0
1437196256.11284804,85352,960.7142944335938,-0.03046874888241291,3888,0
1437196256.45802402,85694,960.7185668945312,-0.02617187425494194,3887,0
1437196256.80509996,86035,960.719970703125,-0.0247656237334013,3885,0
1437196257.14725995,86376,960.7037353515625,-0.041015625,3883,0
1437196257.49141192,86718,960.69873046875,-0.046015623956918716,3882,0
1437196257.89653587,87059,960.7099609375,-0.03476562350988388,3882,0
