timestamp,SCALED_IMU2.time_boot_ms,SCALED_IMU2.xacc,SCALED_IMU2.yacc,SCALED_IMU2.zacc,SCALED_IMU2.xgyro,SCALED_IMU2.ygyro,SCALED_IMU2.zgyro,SCALED_IMU2.xmag,SCALED_IMU2.ymag,SCALED_IMU2.zmag,SCALED_IMU2.temperature
1437195927.89722395,103656,34,3,-1008,12,-18,5,115,229,-546,0
1437195928.17715597,104379,33,-4,-993,11,-16,3,116,226,-549,0
1437195928.56224799,105223,33,-4,-999,16,-13,7,117,229,-547,0
1437195928.83345199,106186,38,-11,-987,8,-11,2,118,225,-543,0
1437195929.48269200,107191,37,0,-997,8,-12,6,116,228,-541,0
1437195930.40914798,108115,28,2,-996,10,-10,4,118,228,-551,0
1437195931.34343982,108959,42,-1,-1001,14,-9,14,118,226,-551,0
1437195932.16877604,109723,35,-9,-1001,13,-15,4,115,228,-548,0
1437195932.78412390,110486,40,-6,-992,13,-10,5,117,227,-542,0
1437195933.61531591,111249,33,-18,-996,14,-17,4,115,227,-546,0
1437195934.23112392,111932,33,-3,-989,16,-8,11,117,225,-546,0
1437195934.85477185,112534,35,1,-995,13,-14,8,118,225,-546,0
1437195935.47508001,113136,41,-11,-999,12,-18,8,116,227,-550,0
1437195935.99734783,113659,37,-8,-991,8,-10,4,116,227,-542,0
1437195936.50856400,114181,34,-3,-1004,15,-11,9,117,225,-550,0
1437195937.03082395,114625,31,0,-988,8,-10,7,116,228,-544,0
1437195937.44390392,115067,33,-3,-998,10,-16,9,117,226,-544,0
1437195937.76497602,115468,37,-16,-1003,13,-4,7,116,228,-549,0
1437195938.26933193,115870,31,-2,-994,15,-13,5,116,227,-542,0
1437195938.57244396,116273,32,-4,-1006,12,-10,5,114,230,-542,0
1437195938.99143600,116635,33,-8,-1004,17,-15,10,116,229,-547,0
1437195939.33963990,116997,39,-4,-993,11,-12,2,117,230,-549,0
1437195939.74785995,117359,34,-5,-994,8,-12,2,116,229,-546,0
1437195940.05408788,117720,28,-3,-995,13,-8,8,115,231,-547,0
1437195940.44068384,118082,38,1,-987,14,-12,7,117,229,-549,0
1437195940.75431204,118403,39,-10,-1000,9,-14,-1,116,231,-547,0
1437195941.05933189,118725,31,-4,-997,6,-12,3,115,230,-548,0
1437195941.47243190,119047,47,-6,-996,8,-16,6,117,223,-545,0
1437195941.88674784,119368,39,-8,-999,11,-14,4,115,229,-541,0
1437195942.36077595,119689,43,0,-990,12,-7,5,114,229,-547,0
1437195942.77799201,120010,30,0,-988,14,-7,5,116,227,-546,0
1437195943.19716382,120332,35,0,-995,9,-17,6,115,229,-541,0
1437195943.54335999,120654,35,-6,-994,12,-10,2,117,227,-548,0
1437195943.99058795,121016,38,-10,-998,14,-7,5,115,228,-549,0
1437195944.22608399,121377,32,4,-1000,16,-13,4,115,230,-547,0
1437195944.57874799,121738,28,-8,-1008,13,-8,4,116,227,-548,0
1437195944.95291591,122140,30,-8,-993,16,-14,12,117,226,-547,0
1437195945.17104793,122542,38,-6,-997,11,-18,5,117,228,-551,0
1437195945.44142795,122946,38,-13,-1003,12,-18,11,116,228,-550,0
1437195945.72424388,123387,33,-7,-994,14,-9,10,115,229,-541,0
1437195946.13800001,123829,34,-7,-994,16,-12,7,116,230,-546,0
1437195946.54750800,124230,35,-10,-1002,8,-14,6,116,227,-546,0
1437195946.96187997,124632,29,-10,-1003,12,-16,4,118,226,-544,0
1437195947.37697601,125034,39,0,-999,14,-18,7,116,228,-549,0
1437195947.79103184,125396,38,-4,-985,16,-16,5,116,230,-546,0
1437195948.12532401,125757,39,-9,-1003,13,-16,4,115,229,-547,0
1437195948.71643591,126118,36,-6,-991,12,-12,11,116,228,-550,0
1437195949.14272404,126479,36,-7,-993,15,-20,1,118,228,-550,0
1437195949.40168405,126840,30,0,-988,9,-9,3,114,230,-546,0
1437195949.62382388,127203,39,0,-987,13,-10,0,117,227,-548,0
1437195949.97399592,127565,33,-6,-1003,10,-8,4,113,230,-543,0
1437195950.23545194,127927,33,-9,-1003,10,-13,9,117,227,-545,0
1437195950.64244390,128288,37,-3,-1004,13,-13,7,115,229,-548,0
1437195951.05653191,128609,31,0,-1004,16,-13,13,117,225,-544,0
1437195951.47381592,128930,36,0,-987,12,-16,1,117,227,-544,0
1437195951.83573198,129252,37,-7,-996,18,-16,9,116,228,-547,0
1437195952.10025191,129574,38,-2,-1013,20,-15,9,117,225,-547,0
1437195952.50803995,129896,30,-8,-1004,18,-23,9,116,228,-549,0
1437195952.79424405,130217,37,0,-996,14,-3,5,116,227,-548,0
1437195953.03527188,130539,37,0,-1001,20,-10,7,117,227,-545,0
1437195953.38583994,130860,29,-7,-997,10,-9,5,116,229,-546,0
1437195953.70058393,131182,35,-3,-996,13,-15,3,117,229,-550,0
1437195953.93879604,131504,37,0,-992,10,-11,10,116,227,-550,0
1437195954.37197590,131826,40,-8,-999,14,-8,9,115,228,-541,0
1437195954.59413600,132147,36,-3,-1003,14,-14,6,117,225,-546,0
1437195954.94313598,132468,33,-4,-987,15,-15,12,115,230,-546,0
1437195955.19832397,132790,36,-1,-998,12,-8,4,116,228,-542,0
1437195955.61551595,133112,33,-4,-995,12,-18,4,117,226,-546,0
1437195955.97867990,133434,30,-9,-1003,21,-18,12,115,231,-546,0
1437195956.21767592,133755,39,-7,-997,16,-10,11,115,227,-544,0
1437195956.48598385,134076,41,-2,-995,9,-15,2,118,226,-549,0
1437195956.80794001,134397,32,-5,-996,9,-18,4,116,231,-548,0
1437195957.07096386,134718,36,-4,-999,14,-13,7,115,227,-543,0
1437195957.41727185,135040,33,4,-992,15,-19,5,118,227,-549,0
1437195957.83035994,135361,36,-12,-1001,15,-15,6,116,229,-547,0
1437195958.24345589,135683,32,-7,-1003,13,-12,8,117,227,-550,0
1437195958.56195188,136005,37,-7,-998,15,-18,7,116,226,-545,0
1437195958.90293598,136326,35,-7,-985,17,-9,9,116,228,-544,0
1437195959.22427201,136648,42,-5,-997,13,-16,9,118,227,-549,0
1437195959.55224800,136971,41,-2,-1003,11,-11,6,116,226,-544,0
1437195959.77319598,137292,37,-9,-1001,16,-14,10,117,224,-544,0
1437195960.17028403,137614,34,-4,-998,14,-12,4,116,228,-550,0
1437195960.52359605,137936,43,2,-997,20,-15,3,116,227,-546,0
1437195960.93778801,138257,41,3,-998,14,-20,9,117,227,-550,0
1437195961.28278804,138579,35,1,-998,12,-12,4,116,228,-548,0
1437195961.66808391,138902,46,-4,-993,17,-15,7,116,229,-546,0
1437195961.92921996,139223,34,-6,-995,13,-18,9,117,226,-550,0
1437195962.18013597,139545,31,0,-997,10,-11,4,115,230,-547,0
1437195962.62736797,139906,45,-6,-999,16,-24,11,115,231,-546,0
1437195962.84660792,140268,32,-7,-1005,10,-12,4,117,226,-545,0
1437195963.25967193,140630,39,-3,-987,16,-10,2,116,226,-547,0
1437195963.48971987,140992,31,-4,-976,12,-13,4,117,228,-549,0
1437195963.89592791,141354,37,1,-1000,14,-15,5,116,229,-542,0
1437195964.31801605,141715,29,-7,-986,14,-20,5,116,228,-549,0
1437195964.70164800,142078,31,-1,-994,19,-22,10,117,227,-545,0
1437195964.88434386,142439,32,6,-1004,14,-17,4,116,229,-548,0
1437195965.22742391,142801,30,1,-998,16,-14,8,116,228,-546,0
1437195965.55824804,143163,35,-12,-986,14,-11,2,117,225,-543,0
1437195965.90791202,143524,39,-7,-994,15,-9,4,117,230,-548,0
1437195966.38899589,143886,37,-7,-1002,10,-15,7,115,229,-546,0
1437195966.79507995,144248,38,-11,-994,22,-12,12,118,227,-546,0
1437195967.14831185,144610,31,-15,-997,13,-14,8,117,226,-544,0
1437195967.56155992,144972,43,-3,-991,14,-15,12,117,228,-549,0
1437195967.90669203,145334,31,0,-979,12,-13,0,116,225,-545,0
1437195968.14872003,145696,35,-6,-999,15,-15,5,117,227,-544,0
1437195968.44368005,146057,32,-19,-997,12,-12,10,116,227,-548,0
1437195968.80589986,146419,41,-6,-999,12,-17,4,116,230,-545,0
1437195969.23105597,146781,40,6,-994,13,-19,5,115,230,-545,0
1437195969.49426794,147143,34,-3,-997,14,-15,8,117,229,-550,0
1437195969.84035587,147506,44,-11,-997,11,-15,9,115,232,-547,0
1437195970.26857591,147867,40,-2,-1005,15,-12,6,116,229,-546,0
1437195970.52709603,148229,39,-8,-991,12,-18,2,117,227,-548,0
1437195970.93583202,148570,32,-4,-1003,18,-17,8,115,228,-542,0
1437195971.34378004,148892,37,-9,-994,18,-8,4,116,229,-542,0
1437195971.54218388,149214,39,-2,-994,14,-13,10,117,227,-548,0
1437195971.91225982,149536,38,5,-1003,13,-13,3,116,228,-541,0
1437195972.26235986,149857,38,-14,-993,16,-19,5,116,228,-540,0
1437195972.63860393,150178,43,-10,-992,13,-16,3,116,231,-551,0
1437195972.88769197,150500,41,-13,-994,16,-13,2,114,228,-542,0
1437195973.19823599,150821,39,0,-995,15,-20,3,116,229,-545,0
1437195973.46892786,151143,42,-4,-998,17,-5,5,116,229,-548,0
1437195973.81107593,151465,40,0,-1003,18,-14,9,115,230,-546,0
1437195974.04231596,151746,37,1,-991,16,-13,1,117,229,-550,0
1437195974.47535992,152027,33,-3,-993,14,-15,1,117,228,-548,0
1437195974.82156396,152308,34,1,-994,18,-18,0,117,227,-550,0
1437195975.08459997,152589,38,-12,-997,20,-17,8,116,231,-547,0
1437195975.43005991,152871,37,-11,-1001,14,-21,5,115,228,-541,0
1437195975.67097187,153153,36,-1,-996,13,-18,1,116,226,-548,0
1437195975.89302397,153434,42,-12,-998,16,-22,2,116,230,-547,0
1437195976.30613589,153716,36,-12,-991,12,-11,0,117,225,-545,0
1437195976.53329182,153997,33,-9,-1003,15,-11,8,115,229,-543,0
1437195976.88029194,154278,38,-12,-997,14,-20,5,117,228,-549,0
1437195977.30651593,154559,48,-2,-991,22,-12,11,115,231,-547,0
1437195977.54459596,154840,35,1,-986,13,-11,9,116,229,-545,0
1437195977.79379201,155121,39,-2,-999,11,-15,4,117,228,-549,0
1437195978.14981604,155403,35,-6,-993,13,-19,12,116,228,-550,0
1437195978.43792796,155684,33,-9,-996,7,-13,2,117,228,-546,0
1437195978.68310404,156006,34,-1,-1006,15,-10,11,116,230,-548,0
1437195978.99729204,156328,35,2,-998,19,-15,2,117,228,-549,0
1437195979.41288400,156649,43,1,-996,13,-15,6,115,229,-546,0
1437195979.63651991,157011,36,-6,-994,12,-3,6,117,228,-542,0
1437195979.99660397,157373,38,-10,-1004,13,-21,5,117,227,-545,0
1437195980.26501203,157735,36,-4,-991,19,-12,9,117,227,-549,0
1437195980.54484391,158096,38,-2,-998,10,-17,6,116,228,-543,0
1437195980.85715985,158458,38,-2,-998,11,-17,1,115,230,-546,0
1437195981.22618794,158819,44,-13,-997,20,-14,10,114,230,-546,0
1437195981.70330000,159183,39,-5,-989,9,-8,5,117,228,-550,0
1437195982.13057995,159545,36,-5,-992,12,-20,6,115,231,-547,0
1437195982.46860790,159906,46,-7,-987,20,-20,3,116,231,-546,0
1437195982.88177204,160268,31,-5,-1008,14,-11,4,117,227,-549,0
1437195983.13397598,160629,40,-3,-995,16,-18,8,115,232,-547,0
1437195983.38513589,160991,37,-2,-997,15,-11,2,115,230,-544,0
1437195983.67030382,161353,34,2,-994,17,-14,10,117,226,-543,0
1437195984.02364397,161714,34,-5,-1000,14,-11,1,116,229,-549,0
1437195984.43649197,162076,40,-9,-991,16,-16,3,118,226,-544,0
1437195984.74463987,162417,41,-2,-1000,15,-11,2,116,227,-544,0
1437195985.09773993,162739,44,0,-994,18,-23,3,116,229,-548,0
1437195985.42990398,163061,42,-5,-999,15,-11,3,117,226,-547,0
1437195985.98646784,163382,42,-7,-1000,16,-19,3,117,227,-548,0
1437195986.33152795,163704,41,-7,-1003,14,-14,3,118,227,-550,0
1437195986.71651983,164026,43,-7,-984,19,-22,9,116,230,-546,0
1437195987.03594804,164347,39,-10,-996,13,-11,7,116,229,-548,0
1437195987.29668403,164669,39,-9,-992,13,-14,7,117,228,-549,0
1437195987.64317989,164990,36,-8,-990,15,-16,6,116,231,-546,0
1437195988.06820393,165312,35,3,-1006,16,-14,2,117,225,-544,0
1437195988.32321596,165633,37,-5,-997,16,-22,10,115,228,-540,0
1437195988.67833996,165955,44,-13,-994,13,-14,9,114,233,-547,0
1437195989.05257583,166276,41,-1,-995,20,-15,8,117,225,-545,0
1437195989.27094793,166598,42,-3,-993,19,-19,10,116,229,-541,0
1437195989.51958799,166919,36,-12,-981,17,-15,5,116,231,-546,0
1437195989.80019188,167282,30,-7,-996,11,-12,1,116,228,-545,0
1437195989.99892402,167643,42,2,-994,13,-20,3,115,230,-545,0
1437195990.37008405,168006,34,-10,-1000,19,-15,9,115,230,-545,0
1437195990.75113583,168367,37,-9,-1004,16,-13,7,117,230,-547,0
1437195991.17738390,168730,41,-6,-993,19,-19,4,117,227,-550,0
1437195991.43351603,169092,39,-4,-990,10,-20,6,117,228,-550,0
1437195991.78771996,169453,45,-10,-995,14,-11,7,116,227,-545,0
1437195992.14069200,169816,39,0,-993,14,-17,3,117,226,-544,0
1437195992.48130393,170178,39,-10,-994,16,-16,3,117,230,-549,0
1437195992.82127190,170499,46,-4,-989,15,-15,10,116,230,-542,0
1437195993.23554397,170821,41,-1,-988,18,-18,10,118,225,-543,0
1437195993.71237183,171143,37,-1,-996,20,-14,9,117,229,-550,0
1437195994.06363583,171464,36,-1,-981,18,-16,10,117,225,-549,0
1437195994.40982795,171785,44,-3,-995,14,-15,12,117,227,-548,0
1437195994.64927197,172108,37,-8,-990,15,-17,2,118,229,-549,0
1437195994.86985588,172429,43,0,-988,15,-20,3,117,227,-548,0
1437195995.14592004,172749,35,2,-1001,17,-14,11,117,226,-544,0
1437195995.41921997,173071,44,-9,-999,17,-17,9,115,229,-545,0
1437195995.73636389,173392,48,-4,-996,14,-12,10,117,229,-550,0
1437195996.03950000,173715,46,-1,-1006,16,-10,10,115,228,-548,0
1437195996.39753199,174037,39,-1,-994,18,-19,2,116,228,-540,0
1437195996.65897202,174358,41,-11,-999,10,-15,8,117,226,-549,0
1437195997.07392788,174679,32,0,-1000,20,-13,8,116,231,-546,0
1437195997.39191198,175000,39,-1,-993,17,-16,7,116,229,-541,0
1437195997.63789988,175322,44,-3,-993,16,-19,5,117,228,-545,0
1437195998.00023198,175644,41,-10,-992,20,-16,9,115,230,-545,0
1437195998.41441989,175925,39,-4,-992,12,-23,2,115,230,-543,0
1437195998.82754397,176207,41,-4,-994,16,-10,9,116,229,-549,0
1437195999.19482803,176488,40,-10,-1003,19,-19,7,116,227,-549,0
1437195999.46153188,176769,38,-6,-993,17,-18,4,116,229,-548,0
1437195999.75857997,177051,37,-4,-993,17,-11,8,115,230,-542,0
1437196000.13019991,177332,38,-11,-995,12,-19,7,117,228,-549,0
1437196000.49639583,177614,42,-2,-993,14,-15,3,115,231,-545,0
1437196000.73528790,177936,38,-11,-997,18,-15,2,116,230,-546,0
1437196001.10559201,178257,37,-6,-997,18,-19,2,117,224,-544,0
1437196001.32561588,178579,40,-12,-996,19,-10,3,116,228,-545,0
1437196001.56767201,178900,38,-1,-996,16,-14,4,116,228,-548,0
1437196001.79487586,179263,36,-8,-1000,12,-21,1,117,224,-544,0
1437196002.15304399,179624,38,-1,-1001,17,-18,8,116,230,-543,0
1437196002.40815997,179986,45,-2,-995,15,-21,6,116,230,-546,0
1437196002.82518387,180348,36,-9,-993,16,-13,3,118,228,-549,0
1437196003.18740797,180709,41,-8,-1001,15,-21,2,117,231,-545,0
1437196003.44655585,181071,33,4,-992,14,-16,13,115,230,-544,0
1437196004.00329590,181433,35,-2,-995,19,-21,3,116,227,-549,0
1437196004.34794784,181795,45,-3,-995,15,-15,3,115,229,-546,0
1437196004.73423600,182156,48,-5,-998,18,-14,13,117,227,-545,0
1437196005.05115199,182517,44,-4,-983,17,-23,3,118,226,-544,0
1437196005.31446004,182879,39,-4,-995,19,-5,11,117,228,-549,0
1437196005.59554005,183240,40,-5,-1001,18,-19,15,117,227,-546,0
1437196005.97362399,183602,28,-9,-997,13,-20,5,116,228,-540,0
1437196006.28073597,183964,44,-9,-1006,13,-18,0,114,230,-546,0
1437196006.69396782,184326,43,-10,-1008,19,-22,8,117,227,-550,0
1437196007.00794792,184687,31,-6,-992,11,-15,1,117,229,-547,0
1437196007.37517595,185048,42,-2,-1000,16,-13,6,116,231,-546,0
1437196007.95530391,185409,39,0,-985,17,-25,7,117,227,-547,0
1437196008.20362782,185770,40,-2,-992,17,-19,9,117,227,-548,0
1437196008.55668783,186133,40,-6,-992,19,-20,11,116,229,-547,0
1437196009.02982402,186495,38,1,-1003,12,-15,4,117,227,-547,0
1437196009.45308399,186856,45,-15,-995,16,-11,10,116,227,-543,0
1437196009.86320400,187218,48,-10,-990,14,-16,0,117,228,-547,0
1437196010.21432400,187580,35,1,-994,19,-17,7,116,229,-541,0
1437196010.64050794,187942,42,-11,-995,16,-24,5,118,225,-544,0
1437196010.89864397,188304,35,-14,-989,15,-15,5,116,228,-549,0
1437196011.11975598,188666,40,-10,-990,19,-18,4,116,230,-546,0
1437196011.39891982,189027,40,-1,-996,16,-20,2,117,230,-545,0
1437196011.72801590,189389,37,-9,-1000,17,-19,11,116,227,-548,0
1437196012.08007598,189750,39,-2,-1005,16,-13,10,114,230,-544,0
1437196012.49325204,190112,39,-3,-997,15,-15,6,115,231,-546,0
1437196012.83768797,190474,47,-6,-998,14,-21,1,117,227,-548,0
1437196013.11554003,190795,38,4,-995,14,-17,4,118,228,-544,0
1437196013.59281993,191117,41,-8,-994,17,-20,5,116,229,-541,0
1437196014.00297189,191438,48,2,-1000,18,-17,0,117,227,-548,0
1437196014.36918783,191760,45,1,-992,16,-15,5,116,230,-547,0
1437196014.60818386,192082,38,0,-1002,17,-14,5,115,228,-539,0
1437196014.87540793,192404,49,-2,-1000,15,-7,4,116,226,-544,0
1437196015.21549582,192725,41,-7,-994,15,-20,9,116,230,-547,0
1437196015.45357990,193046,37,-5,-990,16,-18,2,116,228,-541,0
1437196015.80677605,193368,42,-5,-1001,13,-11,5,117,228,-549,0
1437196016.21986389,193689,36,-4,-997,13,-14,11,116,230,-546,0
1437196016.56503987,194012,32,-4,-995,17,-13,7,117,229,-541,0
1437196016.95016789,194334,36,0,-993,20,-13,7,117,229,-549,0
1437196017.28432393,194655,48,-5,-999,15,-14,9,114,229,-546,0
1437196017.52261186,194976,46,-8,-1004,22,-24,9,118,226,-549,0
1437196017.90867186,195298,37,-3,-995,12,-14,7,118,226,-542,0
1437196018.12773991,195620,43,-2,-985,17,-17,3,115,230,-544,0
1437196018.54091191,195942,38,-2,-999,13,-12,9,118,227,-550,0
1437196018.77095199,196263,41,-2,-993,12,-11,9,117,226,-542,0
1437196019.11812401,196584,39,-3,-989,15,-13,10,117,227,-545,0
1437196019.36934805,196906,41,-14,-1003,13,-20,7,118,227,-548,0
1437196019.61337996,197227,40,-7,-996,17,-13,4,114,227,-542,0
1437196019.95846796,197549,36,-1,-995,15,-12,7,117,227,-549,0
1437196020.22159982,197870,31,-11,-994,13,-17,4,118,227,-548,0
1437196020.63084793,198191,34,-5,-994,18,-16,7,116,231,-546,0
1437196020.91291189,198512,33,-4,-995,14,-13,1,117,226,-546,0
1437196021.25606799,198834,40,-11,-988,13,-17,9,118,225,-548,0
1437196021.66617584,199156,41,-7,-998,13,-26,8,116,229,-547,0
1437196022.01748800,199477,43,-8,-989,20,-11,6,117,226,-544,0
1437196022.44343996,199799,40,-15,-1005,16,-9,13,115,229,-541,0
1437196022.68258786,200121,40,-6,-986,17,-16,10,116,230,-545,0
1437196022.91263604,200443,46,-6,-997,15,-17,6,117,226,-545,0
1437196023.32726789,200765,31,-4,-991,17,-18,13,117,228,-541,0
1437196023.73143983,201086,37,-3,-994,17,-12,10,116,230,-546,0
1437196024.08513999,201408,31,-4,-994,25,-21,13,117,226,-549,0
1437196024.43550801,201729,41,-3,-995,7,-2,3,116,230,-547,0
1437196024.73745584,202051,28,-13,-1012,21,-22,9,116,229,-546,0
1437196024.97949600,202372,45,-4,-989,10,-12,2,116,228,-548,0
1437196025.33969998,202693,41,-6,-1012,23,-27,6,116,228,-541,0
1437196025.57971191,203015,34,0,-993,24,-24,9,116,229,-549,0
1437196025.80674005,203335,39,-9,-999,23,-19,7,117,229,-548,0
1437196026.21302795,203657,35,-11,-1002,18,-21,0,117,227,-546,0
1437196026.57924390,203979,43,-17,-1002,24,-21,10,106,228,-546,0
1437196026.83720398,204300,45,0,-1000,14,-6,8,105,230,-548,0
1437196027.24748802,204621,37,-4,-993,13,-15,10,104,233,-546,0
1437196027.60100389,204943,39,-2,-1001,17,-14,9,105,232,-542,0
1437196027.94283199,205265,40,-12,-994,12,-14,7,104,230,-544,0
1437196028.28090000,205587,39,-6,-991,19,-20,7,105,236,-548,0
1437196028.64808393,205908,35,-5,-996,17,-15,8,105,233,-544,0
1437196028.90530801,206269,45,-1,-995,23,-21,7,105,236,-548,0
1437196029.52234793,206630,39,-11,-998,20,-25,8,103,236,-547,0
1437196029.93452382,206992,33,-8,-994,15,-21,2,105,234,-543,0
1437196030.39367604,207354,44,0,-993,16,-14,5,103,238,-545,0
1437196030.71584797,207717,44,-9,-1002,21,-18,9,104,240,-545,0
1437196030.95391583,208078,44,-2,-990,17,-23,9,104,238,-541,0
1437196031.32413983,208439,42,-1,-996,13,-18,10,105,233,-542,0
1437196031.54521585,208842,44,-8,-995,16,-26,10,106,239,-543,0
1437196031.80342793,209244,49,2,-990,16,-16,0,105,238,-538,0
1437196032.02449203,209686,34,-5,-991,17,-13,8,104,239,-546,0
1437196032.42166400,210128,44,4,-994,19,-16,13,104,238,-543,0
1437196032.88371205,210571,37,-9,-1005,12,-15,7,104,237,-548,0
1437196033.29703593,210973,40,1,-1001,18,-19,12,106,237,-549,0
1437196033.70932388,211375,44,-9,-1000,19,-11,9,106,237,-548,0
1437196034.22165203,211737,41,-8,-998,14,-16,10,104,238,-546,0
1437196034.69500399,212099,38,-2,-994,17,-22,3,105,236,-548,0
1437196035.11169195,212460,49,-2,-1000,19,-23,14,104,234,-542,0
1437196035.53080392,212822,37,-8,-991,18,-13,13,104,237,-544,0
1437196035.87708402,213184,41,-5,-1001,17,-23,10,102,238,-546,0
1437196036.25122404,213546,38,-1,-972,17,-10,10,103,232,-544,0
1437196036.46915197,213907,43,0,-991,20,-19,5,102,236,-547,0
1437196036.74038386,214268,41,10,-1000,16,-15,4,102,238,-543,0
1437196037.06243992,214629,40,-2,-996,20,-11,9,104,234,-547,0
1437196037.37570786,214990,44,-14,-997,22,-14,8,103,235,-548,0
1437196037.74188805,215352,44,-2,-999,17,-17,8,103,235,-548,0
1437196037.97985601,215674,30,-4,-998,21,-16,6,104,235,-546,0
1437196038.28997993,215995,37,0,-1011,14,-16,4,103,236,-548,0
1437196038.62340403,216317,35,-6,-1000,17,-22,9,103,235,-547,0
1437196038.98527598,216638,44,6,-1003,16,-11,4,104,234,-542,0
1437196039.39841986,216919,44,-4,-995,15,-20,10,103,234,-543,0
1437196039.81347203,217199,38,0,-998,19,-16,4,101,239,-545,0
1437196040.25495601,217481,43,-9,-984,16,-16,6,104,235,-547,0
1437196040.58229995,217763,47,-8,-995,19,-13,0,102,236,-540,0
1437196040.89507985,218044,45,-6,-1000,20,-22,14,103,233,-543,0
1437196041.46941590,218686,47,-12,-1006,14,-19,14,104,233,-542,0
1437196041.68951201,219007,39,-9,-995,19,-20,13,102,237,-546,0
1437196041.95351195,219370,41,-8,-1003,20,-19,8,103,237,-547,0
1437196042.35771203,219732,39,-2,-990,17,-22,1,103,235,-543,0
1437196042.77084398,220094,49,-4,-997,18,-20,8,104,236,-547,0
1437196043.18798399,220456,48,-1,-995,22,-22,3,104,235,-547,0
1437196043.55014801,220817,39,5,-994,16,-18,7,102,235,-541,0
1437196043.78928399,221178,32,-1,-989,22,-24,4,102,236,-539,0
1437196044.06233597,221580,41,-6,-996,17,-19,6,104,236,-547,0
1437196044.39657187,221983,43,-3,-1000,14,-14,10,101,236,-539,0
1437196044.74478793,222385,39,3,-997,17,-20,9,103,235,-547,0
1437196045.09798789,222786,41,3,-993,19,-22,11,103,238,-546,0
1437196045.51117587,223187,41,-5,-995,20,-10,12,103,235,-545,0
1437196045.92232394,223589,45,3,-998,8,-19,2,103,236,-548,0
1437196046.36647201,223950,43,2,-1002,19,-16,14,103,232,-544,0
1437196046.75180387,224312,42,-1,-992,18,-16,9,101,238,-544,0
1437196047.06852794,224674,37,0,-994,15,-19,5,102,238,-546,0
1437196047.32688403,225035,34,-9,-990,15,-20,1,101,238,-542,0
1437196047.78496003,225396,50,-6,-1003,17,-16,13,102,235,-542,0
1437196048.12637997,225717,39,-14,-998,17,-17,7,103,237,-547,0
1437196048.36623192,226038,30,1,-996,22,-12,10,102,237,-546,0
1437196048.71232796,226360,34,3,-1005,20,-14,12,102,235,-541,0
1437196049.06258798,226641,41,-3,-1006,19,-26,8,103,233,-546,0
1437196049.30354404,226923,41,-7,-993,17,-12,6,103,238,-545,0
1437196049.65130782,227205,43,-7,-990,14,-14,8,103,237,-541,0
1437196049.89482403,227486,47,-5,-988,22,-20,11,105,235,-548,0
1437196050.20892787,227767,44,2,-997,22,-15,11,102,237,-544,0
1437196050.62222004,228048,45,-4,-994,18,-21,4,104,235,-547,0
1437196050.84974384,228329,41,-10,-990,19,-17,7,102,239,-542,0
1437196051.19738793,228611,36,-8,-993,20,-15,13,104,236,-547,0
1437196051.62254000,228893,40,-4,-1007,17,-20,5,103,238,-545,0
1437196051.86068392,229174,46,-6,-995,19,-15,13,103,239,-543,0
1437196052.45002389,229736,33,-1,-996,16,-12,12,104,233,-543,0
1437196052.69099593,230017,42,-8,-1000,21,-18,8,104,235,-547,0
1437196052.91705990,230338,37,-5,-991,20,-17,13,103,238,-542,0
1437196053.34130383,230660,46,-8,-997,18,-21,1,105,233,-541,0
1437196053.67951584,230983,45,-6,-997,18,-16,6,103,238,-543,0
1437196054.15652394,231304,38,-11,-995,16,-18,6,102,239,-545,0
1437196054.50804782,231625,47,13,-989,18,-21,8,104,236,-547,0
1437196054.98098397,231946,39,-6,-998,18,-15,7,103,239,-545,0
1437196055.36911201,232308,41,-13,-1005,19,-13,11,102,239,-546,0
1437196055.60281992,232669,37,-10,-989,16,-11,7,104,235,-547,0
1437196056.01537204,233031,40,-5,-998,16,-8,4,101,238,-543,0
1437196056.36946797,233393,45,-3,-1005,11,-12,8,103,239,-543,0
1437196056.78286386,233875,33,-8,-1002,17,-22,9,102,236,-539,0
1437196057.13205194,234357,48,-3,-991,15,-19,6,102,239,-545,0
1437196057.37494802,234879,36,3,-990,21,-19,17,104,233,-541,0
1437196057.71825600,235403,38,-4,-1002,21,-13,12,102,238,-543,0
1437196058.23139191,235844,36,-13,-992,22,-19,14,105,235,-546,0
1437196058.64644790,236286,41,-5,-997,19,-22,12,102,238,-543,0
1437196059.05876803,236728,34,-1,-989,17,-18,11,105,234,-544,0
1437196059.47489595,237170,42,-7,-992,18,-14,9,104,236,-548,0
1437196059.91797996,237613,39,-12,-997,21,-13,12,104,234,-546,0
1437196060.41120386,238055,48,-9,-1000,20,-18,10,103,233,-540,0
1437196060.82161593,238457,32,-5,-992,18,-13,6,102,239,-544,0
1437196061.12945199,238819,42,-13,-1003,22,-19,9,103,235,-539,0
1437196061.54361200,239180,44,-4,-994,14,-16,9,104,234,-543,0
1437196061.95696402,239542,38,4,-1005,22,-15,11,103,236,-548,0
1437196062.37106800,239904,42,-7,-990,21,-17,4,102,237,-540,0
1437196062.78423190,240266,43,-5,-989,17,-16,5,103,237,-544,0
1437196063.10239983,240628,37,-8,-1003,21,-18,7,104,237,-546,0
1437196063.43659997,240989,44,-3,-1004,17,-23,2,103,237,-540,0
1437196063.71964383,241351,46,-11,-996,20,-12,10,101,238,-545,0
1437196064.04173994,241712,49,0,-1009,10,-10,7,105,236,-547,0
1437196064.44203186,242075,40,0,-988,17,-17,7,104,236,-540,0
1437196064.91909194,242437,33,0,-1004,19,-14,9,104,235,-545,0
1437196065.28227186,242799,38,1,-1002,17,-19,10,104,237,-547,0
1437196065.52335596,243160,43,-2,-1008,11,-19,5,105,234,-542,0
1437196065.89081192,243522,48,-3,-986,17,-19,9,104,235,-543,0
1437196066.31662798,243844,47,-10,-1005,17,-17,11,103,237,-545,0
1437196066.55779982,244166,38,-10,-997,16,-26,8,104,238,-547,0
1437196066.78695583,244487,41,-4,-998,23,-21,7,103,240,-544,0
1437196067.13359594,244808,41,-8,-1003,26,-23,5,104,235,-547,0
1437196067.55815196,245089,41,3,-1001,17,-21,9,102,236,-543,0
1437196067.81733203,245371,37,0,-1002,23,-22,18,103,238,-544,0
1437196068.03943205,245652,40,0,-1002,16,-23,8,104,237,-547,0
1437196068.42054796,245933,37,0,-1008,19,-17,10,103,237,-545,0
1437196068.66167593,246216,46,-1,-986,15,-22,8,105,234,-542,0
1437196069.06291199,246497,37,0,-997,17,-20,5,104,234,-542,0
1437196069.47399998,246778,42,-1,-1002,20,-17,7,103,235,-547,0
1437196069.88742399,247059,45,0,-1003,16,-17,9,101,238,-544,0
1437196070.24181986,247339,40,-2,-992,20,-14,1,103,234,-542,0
1437196070.65455198,247621,37,-6,-996,21,-21,7,105,233,-542,0
1437196071.06885600,247902,49,-9,-990,19,-12,4,103,239,-545,0
1437196071.43579602,248184,46,-7,-998,19,-17,15,105,234,-543,0
1437196071.72411585,248465,35,-5,-997,25,-22,2,103,237,-544,0
1437196071.94111991,248867,40,-5,-998,22,-17,4,103,238,-545,0
1437196072.18130803,249269,42,-8,-991,19,-10,7,103,237,-539,0
1437196072.55331588,249670,46,2,-1004,14,-18,8,104,236,-547,0
1437196072.77445197,250192,35,0,-1005,19,-18,11,107,237,-546,0
1437196073.03165603,250715,38,-3,-1000,16,-19,7,107,236,-543,0
1437196073.66183591,251278,35,-7,-995,19,-17,2,106,239,-544,0
1437196074.07495189,251759,49,-8,-997,17,-22,6,107,235,-542,0
1437196074.49114394,252181,40,-3,-986,18,-21,8,107,236,-547,0
1437196074.89621592,252603,39,-12,-1003,19,-16,4,108,236,-547,0
1437196075.47452402,252985,38,7,-995,20,-18,5,105,240,-544,0
1437196075.82865191,253366,48,-2,-1001,21,-14,9,105,239,-544,0
1437196076.24193192,253748,40,3,-993,19,-23,7,107,239,-549,0
1437196076.71504402,254130,38,-1,-995,23,-13,10,107,235,-548,0
1437196077.06839204,254511,46,-6,-984,20,-17,3,107,236,-544,0
1437196077.42638397,254894,40,-6,-993,22,-16,5,105,238,-540,0
1437196077.89659595,255276,44,-1,-997,21,-24,5,106,236,-546,0
1437196078.34480405,255656,49,-6,-986,16,-26,4,107,235,-541,0
1437196078.56525588,256038,40,0,-1000,17,-17,10,106,238,-542,0
1437196078.81202388,256419,42,-5,-988,17,-18,3,105,240,-543,0
1437196079.09195185,256801,50,-7,-1003,16,-13,5,106,237,-546,0
1437196079.55331993,257183,48,-9,-987,20,-16,4,106,238,-547,0
1437196079.89445996,257564,42,-12,-993,21,-14,10,107,237,-547,0
1437196080.45650792,257946,45,-2,-995,20,-24,4,106,239,-546,0
1437196080.72580004,258328,42,-5,-993,13,-21,4,107,239,-547,0
1437196081.11080790,258709,49,0,-995,22,-23,3,108,234,-543,0
1437196081.44508386,259090,38,0,-1004,17,-14,8,105,238,-539,0
1437196081.83018804,259473,46,-6,-997,22,-14,5,107,239,-543,0
1437196098.20188785,15986,37,-2,-993,0,-2,0,105,237,-543,0
1437196098.55290794,16228,36,-5,-1001,0,0,-1,105,235,-548,0
1437196098.78398800,16469,44,4,-994,3,-4,6,103,239,-545,0
1437196099.13130403,16710,36,-2,-996,-4,-3,-4,104,236,-544,0
1437196099.48939991,16951,36,-4,-977,0,-2,0,103,236,-543,0
1437196099.79539585,17193,44,-5,-1005,0,-6,-2,105,236,-547,0
1437196100.02757597,17434,51,-9,-987,0,1,3,106,238,-545,0
1437196100.37482786,17675,48,-3,-1001,-4,0,-1,104,237,-549,0
1437196100.78790402,17916,42,-7,-986,0,-2,-4,103,238,-546,0
1437196101.26113200,18157,45,-3,-993,-3,6,-3,105,236,-547,0
1437196101.67321992,18399,46,1,-1008,3,-1,0,104,238,-545,0
1437196102.10736394,18760,40,-8,-991,0,0,-2,103,236,-546,0
1437196102.55069590,19122,40,1,-990,3,-1,-2,107,235,-548,0
1437196102.88978004,19483,39,-8,-994,0,4,0,104,239,-545,0
1437196103.10789990,19844,52,-11,-996,1,6,1,106,236,-541,0
1437196103.33995986,20207,45,-5,-981,2,0,0,105,236,-546,0
1437196103.64706397,20695,45,4,-995,0,2,0,105,234,-542,0
1437196103.87013984,21177,42,-3,-1002,0,-7,0,105,237,-548,0
1437196104.13539982,21780,40,-8,-996,-4,-1,-2,105,239,-545,0
1437196104.62453985,22423,41,-7,-995,-3,-5,-3,106,236,-547,0
1437196105.24368787,23066,43,-3,-994,-1,0,1,104,238,-545,0
1437196105.85994792,23628,47,-2,-998,-2,-3,-1,105,238,-545,0
1437196106.27523184,24110,41,0,-1002,1,-7,-1,105,235,-542,0
1437196106.78535604,24593,43,-10,-982,-1,1,0,105,238,-545,0
1437196107.25871587,25015,49,-6,-1004,-2,-4,-1,105,234,-541,0
1437196107.61205602,25436,41,-4,-999,-2,-4,1,105,238,-546,0
1437196108.02600789,25857,47,-3,-991,-2,-7,0,105,236,-545,0
1437196108.51711583,26239,38,-7,-1006,-3,-3,2,107,237,-547,0
1437196108.95247197,26622,37,-11,-998,-1,1,-2,105,238,-546,0
1437196109.33748794,27004,37,-5,-991,0,-2,5,104,239,-544,0
1437196109.69660401,27384,54,-7,-994,0,-5,-1,105,238,-547,0
1437196109.95568800,27766,39,-2,-1002,3,-3,-5,105,238,-547,0
1437196110.51306796,28147,39,0,-987,-6,-1,-3,105,235,-542,0
1437196110.86511183,28530,41,-2,-993,5,1,-1,104,239,-544,0
1437196111.18176794,28912,44,-2,-993,3,0,2,104,238,-543,0
1437196111.54549599,29293,39,-1,-995,3,-3,-4,106,235,-542,0
1437196112.02263999,29675,47,0,-984,-3,-2,0,104,239,-546,0
1437196112.43279982,30057,46,0,-1000,-5,0,0,103,238,-541,0
1437196112.85614395,30438,36,2,-1003,0,-2,-1,105,238,-547,0
1437196113.31014395,30821,48,-5,-997,-3,0,-5,105,237,-547,0
1437196113.64432001,31202,36,-7,-1004,0,-1,2,106,237,-546,0
1437196113.88631988,31584,52,-8,-999,2,-5,3,104,239,-543,0
1437196114.23875594,31965,39,0,-995,0,-2,6,104,239,-543,0
1437196114.66471982,32346,48,-4,-999,1,-3,-3,105,235,-541,0
1437196114.92186403,32728,39,3,-975,-7,5,-4,104,238,-546,0
1437196115.27199197,33110,48,-3,-987,2,0,1,105,238,-545,0
1437196115.69815588,33492,41,-6,-990,-2,-4,0,105,238,-542,0
1437196116.09925985,33874,33,-4,-1007,-4,-2,-1,105,239,-547,0
1437196116.52457595,34214,51,-6,-993,0,-3,4,105,236,-542,0
1437196116.78365183,34556,34,-9,-999,3,3,-3,103,239,-543,0
1437196117.13376403,34897,46,-8,-994,0,-5,-2,105,238,-547,0
1437196117.55993986,35239,43,-12,-1006,-2,-1,-3,106,235,-544,0
1437196117.81918001,35581,43,-4,-996,-2,5,-2,104,240,-543,0
1437196118.16918397,35922,41,-2,-999,2,-2,-1,104,238,-546,0
1437196118.59537983,36264,46,-4,-996,-2,7,-3,104,237,-544,0
1437196118.95848393,36606,48,-1,-990,3,-2,0,103,238,-538,0
1437196119.17668796,36947,42,-4,-995,-2,5,0,104,240,-543,0
1437196119.56288004,37288,33,-18,-993,-9,0,-4,105,235,-544,0
1437196119.88985205,37629,45,3,-988,-9,3,-3,105,237,-538,0
1437196120.14002800,37972,43,7,-998,3,0,-2,106,241,-542,0
1437196120.55621195,38312,42,0,-993,7,-6,-4,107,234,-543,0
1437196120.89434791,38654,39,-4,-995,15,-18,1,105,239,-544,0
1437196121.17442393,38995,52,0,-1007,2,-2,0,104,239,-544,0
1437196121.52550793,39335,44,-7,-1010,17,-16,5,107,236,-546,0
1437196121.89581585,39677,42,-3,-998,-8,0,-6,105,240,-544,0
1437196122.24189591,39979,45,-6,-999,1,6,0,105,239,-543,0
1437196122.58603597,40280,40,2,-990,-2,-3,-6,106,237,-547,0
1437196122.93120790,40582,50,-7,-994,-1,0,-2,104,237,-538,0
1437196123.34661603,40883,49,-9,-1001,-4,-1,5,106,238,-546,0
1437196123.68948388,41184,43,-7,-1002,-5,4,0,106,238,-547,0
1437196124.00865602,41485,48,0,-988,0,-7,-3,107,236,-541,0
1437196124.23876786,41787,41,-5,-989,-3,-5,3,107,235,-543,0
1437196124.59792399,42089,47,-8,-1002,2,0,1,106,238,-544,0
1437196124.83591604,42391,44,-3,-991,-1,-1,-4,107,235,-544,0
1437196125.10302782,42691,46,-12,-999,0,-4,3,104,239,-546,0
1437196125.42527986,42993,43,-1,-987,-4,-1,-1,104,238,-543,0
1437196125.68935990,43294,41,-12,-996,-2,3,-3,107,235,-547,0
1437196126.06876802,43596,37,0,-996,2,4,4,105,239,-543,0
1437196126.28680396,43898,46,-14,-1002,-3,1,-1,105,236,-545,0
1437196126.52767992,44200,46,-10,-1000,-4,1,1,106,235,-546,0
1437196126.87855601,44502,50,0,-991,1,-2,0,107,233,-542,0
1437196127.13599586,44803,40,-5,-1007,0,3,-1,106,236,-542,0
1437196127.35793591,45105,45,-5,-986,0,3,-2,105,239,-543,0
1437196127.70808387,45406,51,-7,-1005,4,-2,-1,106,237,-544,0
1437196127.96814799,45708,42,-6,-999,0,-4,-1,105,236,-541,0
1437196128.60043597,46010,36,4,-991,-1,5,0,105,238,-543,0
1437196128.86968803,46312,40,0,-997,3,-1,1,106,235,-547,0
1437196129.25479198,46613,46,-8,-996,0,10,-1,104,238,-543,0
1437196129.60397601,46915,42,2,-992,-2,-4,2,106,237,-546,0
1437196129.83602786,47216,37,-4,-988,2,-5,0,106,236,-546,0
1437196130.24117994,47557,45,1,-988,-1,0,-6,106,236,-541,0
1437196130.59443593,47900,49,-5,-1001,5,-5,1,105,237,-545,0
1437196131.00905204,48241,47,-6,-1002,1,-4,6,106,237,-546,0
1437196131.48081589,48582,46,-7,-992,0,2,-1,104,235,-544,0
1437196131.77379990,48964,41,0,-988,3,-11,3,106,235,-541,0
1437196132.08796787,49346,46,-10,-998,-1,-2,2,106,235,-546,0
1437196132.32812405,49728,43,1,-992,1,4,-4,104,236,-539,0
1437196132.77126002,50150,49,-11,-993,0,0,-3,104,239,-544,0
1437196133.08850002,50571,40,-4,-986,2,-5,0,107,235,-543,0
1437196133.34746003,50993,40,-2,-980,-1,3,-1,107,236,-546,0
1437196133.69761586,51416,40,0,-1003,0,-3,3,106,237,-547,0
1437196134.03968787,51838,48,2,-1000,0,-4,2,106,239,-546,0
1437196134.53717995,52260,47,-4,-994,-1,5,2,106,236,-547,0
1437196134.83213592,52682,47,-3,-992,0,-3,7,104,239,-541,0
1437196135.25429583,53064,50,-3,-997,-2,-1,0,106,234,-541,0
1437196135.61758804,53445,46,-7,-1001,4,-3,-1,107,236,-547,0
1437196136.00860405,53828,37,-8,-984,-4,7,-2,107,234,-543,0
1437196136.34672403,54169,44,-5,-998,3,-1,-1,104,238,-544,0
1437196136.70191598,54510,48,-5,-998,-4,-3,-4,106,236,-548,0
1437196137.00209594,54852,51,-13,-1000,-2,0,-3,106,237,-548,0
1437196137.32605600,55154,40,-2,-1000,7,-4,0,104,238,-543,0
1437196137.65926003,55456,45,-1,-992,0,0,1,107,238,-549,0
1437196138.00651598,55757,55,-1,-993,5,-3,1,106,237,-540,0
1437196138.22859597,56059,41,-3,-991,0,-7,-2,104,239,-545,0
1437196138.56873202,56360,43,0,-991,1,-4,0,106,236,-545,0
1437196138.91304803,56662,44,-5,-996,0,-2,0,105,239,-546,0
1437196139.14396000,56964,46,-2,-985,1,0,0,106,234,-540,0
1437196139.55435991,57265,45,0,-1000,3,-5,3,107,235,-548,0
1437196139.97627997,57567,44,-9,-982,0,-2,1,106,237,-545,0
1437196140.32343602,57869,46,-2,-993,-4,-3,3,106,235,-543,0
1437196140.74874783,58170,41,-7,-1005,0,-3,6,105,236,-539,0
1437196141.00370002,58472,48,-2,-979,-4,-6,-3,105,237,-547,0
1437196141.35778785,58774,49,0,-994,1,-3,-6,106,238,-538,0
1437196141.78427196,59075,41,-1,-990,0,-1,2,104,239,-544,0
1437196142.02315593,59376,36,2,-998,3,-6,1,107,233,-546,0
1437196142.28219604,59718,43,13,-991,0,1,-1,104,238,-545,0
1437196142.70644403,60060,49,-2,-983,-2,1,1,105,241,-544,0
1437196142.97460794,60401,35,4,-985,0,0,6,106,236,-545,0
1437196143.32984400,60743,43,-14,-989,1,2,0,104,240,-544,0
1437196143.68081594,61085,49,3,-1001,0,-6,-6,106,237,-539,0
1437196143.92209983,61426,44,4,-991,0,-10,2,106,236,-545,0
1437196144.32322788,61808,43,-17,-995,-1,4,3,104,237,-545,0
1437196144.78234792,62190,46,-8,-989,4,-8,3,105,238,-538,0
1437196145.03043985,62572,41,-2,-993,2,0,6,106,235,-546,0
1437196145.36115599,62954,35,-8,-996,2,-6,0,107,235,-542,0
1437196145.85293603,63335,38,-4,-995,4,-3,-1,105,238,-545,0
1437196146.23309183,63717,47,2,-995,-2,4,-3,105,239,-543,0
1437196146.49413204,64100,42,-8,-999,2,-1,0,104,239,-545,0
1437196146.81335187,64482,51,-11,-986,0,-2,1,106,236,-547,0
1437196147.22340798,64864,39,0,-995,1,-5,0,104,239,-544,0
1437196147.65166402,65246,41,-13,-994,-3,-4,-2,105,236,-540,0
1437196147.98972797,65628,47,-7,-991,-4,-1,-1,105,236,-546,0
1437196148.46693587,66010,40,-10,-991,0,-2,-3,106,235,-540,0
1437196148.75916791,66392,42,-1,-995,0,1,1,106,237,-542,0
1437196149.11169600,66773,45,-2,-985,0,-1,3,106,235,-546,0
1437196149.33664393,67154,49,-3,-988,1,0,0,105,239,-541,0
1437196149.70340800,67536,45,-12,-997,0,0,5,106,236,-546,0
1437196150.09151196,67919,41,3,-985,-1,-6,-2,107,235,-547,0
1437196150.47362804,68260,45,-2,-1000,4,-2,-5,106,237,-545,0
1437196150.81906390,68602,42,-1,-992,0,0,3,105,237,-545,0
1437196151.20415998,68944,40,-2,-1003,-2,1,8,106,235,-546,0
1437196151.52226400,69286,42,-5,-999,-4,0,-5,104,236,-540,0
1437196151.78735995,69628,55,-1,-1003,-5,-1,-3,105,238,-544,0
1437196152.13143992,69970,40,-4,-987,2,5,-2,105,237,-546,0
1437196152.50160003,70271,48,-5,-1005,2,-6,-1,105,238,-541,0
1437196152.82190394,70572,45,0,-1002,7,-1,-3,106,235,-541,0
1437196153.16799188,70874,39,1,-1000,-4,1,-5,104,238,-546,0
1437196153.65802002,71175,46,-11,-1002,-1,1,-3,105,239,-543,0
1437196154.05536795,71476,46,1,-999,2,0,0,106,237,-548,0
1437196154.47244787,71778,40,-3,-989,-1,-2,-1,104,238,-543,0
1437196154.82459188,72080,45,0,-997,1,0,3,106,238,-546,0
1437196155.23861194,72381,50,-12,-989,2,-2,3,107,233,-541,0
1437196155.61496401,72724,44,-6,-1004,1,-1,-1,105,239,-542,0
1437196155.85913205,73066,39,0,-998,1,-4,0,106,236,-548,0
1437196156.20428395,73407,52,-10,-995,-1,-9,-1,104,236,-541,0
1437196156.54350805,73749,41,-1,-994,1,-5,-4,104,238,-540,0
1437196156.86547589,74211,41,-3,-1000,0,5,3,106,239,-543,0
1437196157.11466002,74671,48,-7,-991,0,1,0,105,236,-542,0
1437196157.37261987,75173,39,4,-996,6,-1,-4,105,238,-543,0
1437196157.82291985,75675,39,-2,-988,1,-2,1,106,236,-547,0
1437196158.34230804,76178,49,-11,-1007,-5,1,0,105,238,-543,0
1437196158.76840782,76600,50,2,-999,3,-4,4,106,235,-542,0
1437196159.27445602,77022,45,-4,-998,0,-3,1,106,236,-546,0
1437196159.62563586,77404,46,-5,-993,-3,0,0,105,237,-545,0
1437196159.99599600,77785,47,3,-999,-4,2,-5,105,237,-538,0
1437196160.46806788,78126,42,-4,-999,-2,-1,5,106,236,-547,0
1437196160.78587604,78469,42,-6,-989,0,0,6,105,236,-548,0
1437196161.02929997,78810,37,-6,-987,1,-2,0,105,237,-538,0
1437196161.34642386,79151,50,-1,-1001,-3,-2,4,106,236,-544,0
1437196161.68063998,79492,43,-4,-994,6,-1,5,106,236,-547,0
1437196162.02771997,79833,37,-9,-995,-1,-6,-4,106,236,-543,0
1437196162.38188004,80175,52,-7,-990,0,0,-3,106,239,-544,0
1437196162.71697593,80517,42,-12,-987,5,2,1,106,236,-548,0
1437196163.06318402,80859,48,1,-995,0,-1,1,105,239,-546,0
1437196163.41949987,81200,48,2,-1001,3,3,-1,106,240,-543,0
1437196163.75248384,81541,48,-16,-993,-1,1,1,106,236,-546,0
1437196164.09473205,81883,43,-11,-991,3,-6,20,106,236,-540,0
1437196164.37055588,82225,24,-19,-992,0,-5,7,105,238,-539,0
1437196164.76081204,82567,39,-27,-1012,-18,12,-13,105,235,-547,0
1437196165.23800802,82908,47,2,-994,-5,-1,4,103,234,-542,0
1437196165.64815593,83250,39,-7,-983,-18,12,-15,105,235,-538,0
1437196166.01447988,83592,25,-29,-993,4,-3,-2,106,236,-546,0
1437196166.27242398,83933,63,4,-992,-111,103,-27,105,239,-539,0
1437196166.68186402,84275,11,-11,-991,55,-48,15,107,240,-543,0
1437196188.31236005,17754,36,-3,-995,-3,0,-1,105,239,-548,0
1437196188.56041598,17995,35,0,-990,-2,0,-5,102,244,-546,0
1437196188.87066793,18237,34,5,-990,-8,3,-1,102,240,-541,0
1437196189.13780785,18478,45,-3,-993,1,1,-6,102,241,-542,0
1437196189.46012783,18719,40,2,-988,-2,-6,-7,103,240,-548,0
1437196189.69892788,18959,44,-6,-984,0,0,-4,103,242,-545,0
1437196190.11515594,19200,41,-4,-1001,1,1,-5,104,239,-544,0
1437196190.34221196,19442,48,-1,-999,0,1,3,103,243,-545,0
1437196190.68869996,19683,41,-5,-999,0,-3,0,103,240,-551,0
1437196191.03948402,19924,49,-4,-999,0,-6,0,104,238,-549,0
1437196191.34365988,20205,47,-9,-979,3,1,0,105,239,-549,0
1437196191.62279201,20486,38,-1,-999,-2,-4,0,102,243,-545,0
1437196191.88694382,20767,31,-10,-998,0,0,0,104,240,-547,0
1437196192.15199184,21049,44,-2,-986,1,3,4,102,240,-547,0
1437196192.39115191,21330,44,4,-1007,0,6,-2,102,243,-546,0
1437196192.76142383,21732,42,-9,-995,1,4,0,104,238,-543,0
1437196192.98127198,22134,41,-9,-995,0,-2,0,103,239,-548,0
1437196193.23953199,22536,35,-10,-988,0,-2,3,103,235,-545,0
1437196193.46149182,22937,43,-8,-996,1,-4,-7,102,240,-541,0
1437196193.84171200,23338,48,-6,-988,0,-2,1,102,243,-545,0
1437196194.31886387,23739,42,-1,-993,1,2,-2,103,239,-547,0
1437196194.63597989,24100,50,1,-1014,1,-5,0,104,239,-547,0
1437196195.04519200,24462,45,-12,-991,-1,-1,0,102,243,-545,0
1437196195.38341188,24824,31,5,-1006,4,-4,0,105,239,-545,0
1437196195.76845598,25186,37,1,-996,-5,4,-3,104,239,-550,0
1437196196.10751200,25547,40,-6,-998,1,-2,0,105,240,-548,0
1437196196.48782802,25908,49,-14,-1000,3,3,0,102,241,-548,0
1437196196.91395593,26270,46,-3,-994,3,6,0,103,240,-541,0
1437196197.17121196,26632,32,-4,-990,4,-4,4,104,238,-546,0
1437196197.52126789,26994,39,0,-1008,-2,2,-6,102,241,-542,0
1437196197.99443197,27356,44,-5,-996,5,-9,1,102,241,-543,0
1437196198.45421195,27717,40,-7,-1003,0,-2,5,102,239,-548,0
1437196198.71879196,28078,41,-4,-1002,-3,-9,6,102,240,-541,0
1437196198.98281598,28439,53,-5,-996,0,1,7,102,242,-545,0
1437196199.38304782,28802,46,-12,-989,2,-6,0,104,240,-548,0
1437196199.81020784,29124,45,-6,-993,0,3,8,103,240,-547,0
1437196200.04935193,29445,34,-5,-1000,0,-3,-1,103,240,-545,0
1437196200.31641984,29767,36,-4,-993,-2,0,0,103,240,-547,0
1437196200.57846403,30088,43,-9,-985,2,-2,1,102,242,-547,0
1437196200.94719195,30409,43,-15,-1006,0,1,1,102,240,-543,0
1437196201.28191590,30731,44,3,-988,1,0,-2,104,238,-544,0
1437196201.56491184,31053,43,-1,-995,0,-1,1,104,240,-541,0
1437196201.89921999,31375,46,-2,-1002,2,2,-1,101,242,-541,0
1437196202.28318787,31696,43,-1,-1006,2,-5,-9,103,241,-547,0
1437196202.75749588,31978,41,-9,-1000,3,2,4,103,240,-542,0
1437196203.18064785,32259,42,-10,-1001,5,2,7,104,237,-544,0
1437196203.48772788,32541,46,-6,-1006,-2,-4,1,103,238,-543,0
1437196203.70569205,32822,110,60,-1008,-44,41,-29,104,239,-543,0
1437196204.15003204,33104,-108,-121,-1199,426,-729,-732,45,232,-559,0
1437196204.46885204,33425,-45,16,-1057,-485,297,-915,-63,215,-575,0
1437196204.71111584,33747,1,73,-856,201,373,-840,-74,269,-559,0
1437196205.02622795,34068,7,-13,-1082,108,-277,-355,-66,246,-564,0
1437196205.25453186,34390,83,-40,-994,-342,154,328,-98,235,-565,0
1437196205.60051584,34752,78,73,-1021,-161,-97,160,-51,300,-545,0
1437196206.07580400,35114,60,38,-919,10,145,-285,-41,317,-543,0
1437196206.44095993,35475,37,-86,-955,419,-261,-376,-55,347,-528,0
1437196206.69907594,35836,-129,-153,-901,-22,184,-365,-124,266,-551,0
1437196207.11025596,36198,-31,-15,-911,-221,334,-933,-147,271,-545,0
1437196207.46521997,36561,56,-55,-1054,239,-14,-354,-186,234,-552,0
1437196207.89150786,36923,50,9,-1026,-42,-155,-270,-218,181,-557,0
1437196208.12962794,37284,-5,0,-1016,42,-161,-5,-244,162,-550,0
1437196208.35979605,37646,-35,39,-974,49,438,86,-267,160,-539,0
1437196208.76589990,38007,35,-6,-992,-6,10,-7,-240,168,-551,0
1437196209.11901593,38369,28,-3,-1005,0,-9,5,-239,168,-551,0
1437196209.53323984,38732,36,-3,-1002,-1,-3,-7,-236,166,-555,0
1437196209.95941997,39093,31,-3,-999,2,-5,0,-240,168,-551,0
1437196210.21263599,39454,28,-7,-995,-2,0,2,-239,168,-551,0
1437196210.56588387,39815,39,-1,-997,0,0,-3,-238,166,-553,0
1437196210.97982001,40176,26,1,-993,0,-3,3,-239,167,-555,0
1437196211.39310002,40538,34,4,-1015,0,3,3,-240,167,-552,0
1437196211.75122404,40899,34,-6,-992,3,-7,6,-237,164,-552,0
1437196212.15133190,41261,36,-1,-1011,4,0,-1,-237,165,-551,0
1437196212.38857985,41623,26,-5,-985,1,-1,2,-238,164,-550,0
1437196212.61143994,41984,35,-6,-993,6,-3,2,-239,169,-555,0
1437196212.88781595,42346,34,-4,-996,0,3,1,-238,166,-556,0
1437196213.25670791,42708,29,-5,-997,-3,0,-2,-238,168,-555,0
1437196213.60209584,43030,24,0,-1005,1,3,-1,-239,169,-552,0
1437196213.94677591,43352,28,2,-993,0,-2,4,-239,168,-554,0
1437196214.35629988,43673,24,-8,-1000,2,-5,6,-238,167,-549,0
1437196214.70737982,43995,37,0,-992,4,-2,-2,-240,169,-554,0
1437196215.12059188,44317,28,-5,-990,-2,-4,0,-238,167,-556,0
1437196215.53494382,44640,28,-3,-1001,-2,0,-3,-238,163,-551,0
1437196215.86602783,44960,33,-7,-1005,-1,-3,-2,-239,167,-553,0
1437196216.20308399,45281,26,-2,-998,3,-3,-2,-238,167,-555,0
1437196216.42999196,45644,28,-4,-995,0,-2,1,-239,166,-549,0
1437196216.83535194,46005,31,-4,-989,0,2,-3,-238,166,-550,0
1437196217.20141602,46367,30,7,-998,0,0,-5,-238,168,-557,0
1437196217.45623994,46728,26,-13,-988,5,-8,0,-239,169,-548,0
1437196217.86890388,47091,32,-4,-990,2,0,0,-240,168,-553,0
1437196218.25185204,47452,23,4,-1001,4,2,2,-240,170,-553,0
1437196218.49494004,47814,28,-14,-996,0,-5,1,-237,164,-552,0
1437196218.85726786,48177,22,-4,-987,-1,-3,-2,-238,167,-555,0
1437196219.10141993,48538,31,-6,-992,2,-1,1,-242,171,-554,0
1437196219.46438003,48899,31,-9,-1004,3,0,1,-238,164,-551,0
1437196219.89064789,49221,34,8,-985,1,-4,0,-237,167,-556,0
1437196220.12960005,49542,32,-5,-998,1,0,1,-239,170,-552,0
1437196220.39713597,49865,37,7,-998,0,1,-4,-237,165,-551,0
1437196220.71886396,50186,21,-5,-998,0,-2,7,-238,166,-551,0
1437196220.98112392,50468,32,-3,-1001,0,-1,-1,-239,168,-554,0
1437196221.36147594,50748,25,1,-988,2,-3,1,-238,167,-556,0
1437196221.58028793,51029,30,-8,-998,-1,0,3,-240,167,-548,0
1437196221.82043195,51310,31,-4,-991,2,-3,0,-237,165,-556,0
1437196222.19160795,51593,31,-4,-995,-3,-3,3,-239,168,-554,0
1437196222.41466403,51875,29,0,-1000,-2,4,-2,-237,165,-551,0
1437196222.67971992,52155,36,-3,-994,0,1,3,-239,168,-548,0
1437196223.12399983,52437,30,0,-992,0,-2,-1,-240,169,-554,0
1437196223.50929999,52718,36,-6,-1010,0,4,-3,-238,167,-557,0
1437196223.82735205,52999,34,-11,-995,4,-3,-2,-238,166,-549,0
1437196224.09040785,53281,33,-8,-997,0,-6,0,-238,165,-553,0
1437196224.43548799,53562,27,-5,-997,0,-4,0,-240,171,-553,0
1437196224.80977988,53843,27,8,-990,0,6,0,-238,167,-556,0
1437196225.12485600,54125,31,-9,-987,0,-3,4,-238,168,-548,0
1437196225.47107983,54407,24,0,-994,0,-1,5,-239,167,-549,0
1437196225.98929596,54730,33,-7,-983,6,2,0,-238,168,-557,0
1437196226.23139191,55051,33,-13,-1001,-4,3,-3,-237,166,-548,0
1437196226.64245582,55372,32,0,-1002,-4,-1,-8,-238,167,-557,0
1437196226.98264384,55695,32,-5,-996,2,1,-3,-237,167,-557,0
1437196227.20475602,56136,29,-1,-1005,-1,0,1,-240,168,-549,0
1437196227.60261989,56577,37,3,-1003,0,6,0,-240,168,-554,0
1437196227.98918390,57058,30,-6,-984,0,0,10,-238,167,-553,0
1437196228.20721197,57539,35,-7,-992,-3,-1,-4,-240,167,-550,0
1437196228.53034782,58021,23,-3,-993,6,0,0,-239,168,-547,0
1437196229.10052395,58504,28,-6,-988,-1,0,0,-239,167,-550,0
1437196229.44271994,58926,27,-5,-994,-1,-5,0,-240,166,-558,0
1437196229.92379189,59348,26,-5,-999,-3,1,-2,-237,166,-556,0
1437196230.23201585,59729,26,-4,-997,0,1,0,-239,169,-556,0
1437196230.70423985,60071,26,-7,-992,-2,3,1,-240,169,-552,0
1437196230.99834800,60414,27,2,-986,1,-2,3,-239,167,-548,0
1437196231.33034801,60756,26,-7,-990,0,1,2,-239,168,-557,0
1437196231.88681197,61096,32,-3,-999,-2,-2,-6,-237,168,-553,0
1437196232.13780785,61437,34,-5,-997,-1,-4,-8,-239,167,-548,0
1437196232.39721203,61778,33,-4,-1002,-3,0,0,-238,165,-553,0
1437196232.72700787,62120,36,-9,-983,2,-3,0,-239,171,-554,0
1437196232.99037600,62461,32,-3,-995,1,-4,-1,-238,168,-553,0
1437196233.40129590,62803,26,0,-990,1,-7,-3,-238,165,-553,0
1437196233.80956388,63145,33,-3,-1003,-1,-1,-5,-240,170,-554,0
1437196234.17568398,63486,27,-10,-991,0,0,-6,-239,168,-553,0
1437196234.43519187,63828,33,-8,-997,1,7,1,-236,166,-556,0
1437196235.00402403,64169,30,1,-1006,-5,-2,-7,-240,168,-554,0
1437196235.24610782,64510,32,-5,-990,1,-3,0,-240,168,-554,0
1437196235.49269605,64853,33,5,-1007,0,-8,-2,-239,168,-556,0
1437196235.75143194,65194,27,0,-994,-4,2,-5,-239,170,-553,0
1437196236.23361993,65535,18,-2,-993,-2,1,1,-239,169,-552,0
1437196236.67987204,65877,32,-1,-1006,-1,3,-1,-238,165,-551,0
1437196236.89875197,66218,29,-10,-1000,2,1,3,-240,171,-554,0
1437196237.31200790,66559,29,-8,-985,3,-5,4,-240,169,-552,0
1437196237.54202390,66901,30,1,-992,0,-6,4,-238,164,-551,0
1437196238.09567189,67244,29,-8,-988,-2,0,0,-239,168,-555,0
1437196238.43946385,67586,39,-1,-990,-3,-3,-2,-240,170,-554,0
1437196238.83958387,67927,33,-2,-990,-3,0,2,-238,166,-556,0
1437196239.17591190,68269,31,-14,-989,4,-3,0,-239,169,-554,0
1437196239.40385604,68610,26,-1,-999,0,1,0,-241,171,-553,0
1437196239.75095201,68953,29,3,-997,0,-1,5,-238,168,-557,0
1437196240.17861199,69294,29,1,-999,-2,-3,-2,-240,168,-555,0
1437196240.43142390,69635,36,3,-992,-1,-5,-4,-241,168,-553,0
1437196240.78557992,69977,24,-3,-1011,-2,-2,3,-238,165,-551,0
1437196241.13463593,70319,22,3,-994,-2,-1,-1,-238,167,-556,0
1437196241.51479602,70662,23,3,-1006,-1,-1,0,-239,169,-555,0
1437196241.83188391,71004,29,1,-999,0,0,-5,-237,165,-552,0
1437196242.09519196,71345,27,-5,-990,-1,1,-1,-240,170,-553,0
1437196242.50531983,71686,28,-3,-1000,2,-7,4,-238,168,-556,0
1437196242.85631585,72028,26,-4,-1000,0,-2,0,-240,167,-557,0
1437196243.20688796,72370,34,-9,-1006,-2,0,-1,-238,167,-556,0
1437196243.58556795,72713,26,-5,-987,0,6,3,-238,167,-555,0
1437196243.90351200,73054,34,-12,-996,-3,3,-1,-238,167,-557,0
1437196244.20403194,73396,25,2,-1003,-2,-7,-4,-238,168,-556,0
1437196244.47201991,73736,28,2,-1005,0,0,-2,-239,168,-557,0
1437196244.69023204,74077,26,5,-1002,-3,2,-1,-240,168,-549,0
1437196245.06429195,74419,31,-5,-991,0,-7,-2,-239,167,-556,0
1437196245.44937992,74761,26,-5,-997,-3,0,-2,-238,168,-555,0
1437196245.68586802,75102,25,-7,-992,0,-3,3,-239,167,-549,0
1437196246.09876394,75444,25,-7,-1000,4,1,1,-237,166,-556,0
1437196246.43793988,75786,30,-6,-995,0,-6,1,-238,167,-556,0
1437196246.65891600,76128,28,-3,-990,-2,1,-4,-238,167,-557,0
1437196247.07411599,76470,30,0,-1001,-7,-8,-4,-237,166,-556,0
1437196247.41235185,76813,29,-4,-997,-1,0,2,-240,167,-556,0
1437196247.75759602,77154,30,-8,-999,1,2,-2,-240,167,-551,0
1437196248.07557201,77495,32,8,-1005,-1,3,-10,-238,166,-557,0
1437196248.50881600,77837,24,-10,-995,1,-2,1,-238,167,-556,0
1437196248.72969985,78179,20,-5,-997,0,0,-5,-240,167,-549,0
1437196249.12677598,78521,18,3,-1007,4,0,-5,-239,169,-555,0
1437196249.48024392,78862,24,-2,-994,-4,0,-4,-239,166,-555,0
1437196249.89430785,79204,24,-2,-993,-1,3,-3,-241,168,-547,0
1437196250.30774784,79545,26,1,-1000,3,-2,3,-239,170,-555,0
1437196250.62455583,79886,33,2,-1000,-1,-2,-9,-240,167,-555,0
1437196250.94273591,80228,25,-7,-1000,-3,-5,-1,-238,167,-551,0
1437196251.20577192,80570,35,0,-1011,2,3,-3,-239,169,-555,0
1437196251.58501601,80912,30,-2,-1004,3,-2,1,-238,166,-557,0
1437196251.80408001,81253,28,-1,-986,-4,0,-9,-240,168,-549,0
1437196252.21715188,81594,28,4,-996,3,-5,5,-238,167,-557,0
1437196252.46668792,81937,29,-10,-1008,-1,1,-3,-239,168,-557,0
1437196252.79345584,82279,29,-5,-1003,0,4,2,-240,167,-547,0
1437196253.27643585,82621,35,0,-995,1,0,5,-239,169,-553,0
1437196253.62325597,82962,31,-8,-1001,0,-1,-1,-239,168,-558,0
1437196254.03602386,83303,25,-2,-994,1,2,-1,-239,169,-550,0
1437196254.45028400,83645,25,1,-997,0,-1,-1,-240,169,-553,0
1437196254.76728797,83986,31,-9,-1003,4,1,3,-238,166,-557,0
1437196255.10242796,84328,26,-7,-996,1,-1,3,-239,167,-554,0
1437196255.35755205,84669,24,3,-992,1,2,6,-239,169,-552,0
1437196255.69570804,85010,34,-1,-998,-3,-1,-3,-238,167,-557,0
1437196256.10881591,85352,35,-5,-996,-3,-1,2,-237,167,-555,0
1437196256.45402789,85694,26,0,-1000,0,4,2,-240,170,-553,0
1437196256.80117202,86035,27,-8,-1006,2,-2,-2,-238,167,-555,0
1437196257.14328790,86376,31,-3,-1001,2,-1,-2,-239,166,-551,0
1437196257.48849201,86718,23,0,-1000,0,0,8,-240,169,-553,0
1437196257.89264393,87059,23,-7,-990,1,-4,-1,-238,166,-556,0
1437196258.22458386,87400,28,-1,-1003,-1,0,1,-239,166,-552,0
1437196258.49383593,87742,29,0,-1000,1,-4,-2,-239,167,-556,0
1437196258.81214786,88084,26,-6,-996,0,0,5,-238,166,-556,0
1437196259.11206794,88426,26,-4,-1002,-3,0,0,-239,167,-555,0
1437196259.38113594,88768,33,-6,-1001,-1,5,-2,-240,166,-556,0
1437196259.62831998,89109,29,-4,-989,0,-1,2,-238,168,-555,0
1437196259.93353987,89450,34,-8,-998,1,4,-4,-238,166,-554,0
1437196260.35760403,89792,26,0,-993,-1,1,-2,-239,167,-555,0
1437196260.67469597,90134,30,-3,-997,-3,3,-6,-240,168,-556,0
1437196260.92391586,90435,22,-4,-995,-5,-3,-11,-238,166,-557,0
1437196261.29509997,90737,33,0,-989,-4,-3,-4,-238,166,-550,0
1437196261.54385996,91038,26,-8,-1003,0,0,-6,-240,169,-555,0
1437196261.82627583,91340,26,-6,-1004,2,2,-2,-239,167,-556,0
1437196262.15348792,91602,31,0,-991,0,0,0,-238,165,-552,0
1437196262.42751193,91864,37,-6,-993,0,-1,-11,-238,168,-554,0
1437196262.74547982,92125,32,1,-996,-4,2,-4,-238,168,-555,0
1437196262.98263597,92387,28,4,-1000,-2,2,3,-239,167,-557,0
1437196263.39880800,92647,31,-2,-1005,-2,2,-7,-239,167,-551,0
1437196263.62596798,92909,29,-3,-996,0,-1,-7,-241,169,-556,0
1437196263.98514795,93171,22,2,-987,-3,5,-1,-238,167,-556,0
1437196264.22414398,93432,33,-8,-1000,-7,-7,-7,-239,168,-556,0
1437196264.46433997,93694,28,-3,-990,3,0,-1,-239,169,-554,0
1437196264.73050785,93955,23,-10,-1000,1,0,-2,-239,171,-555,0
1437196265.06915593,94217,20,-6,-1000,-1,-1,-3,-238,168,-556,0
1437196265.45171595,94478,22,0,-986,0,0,-3,-237,166,-557,0
1437196265.69084001,94739,31,-7,-987,1,-2,0,-239,166,-550,0
1437196266.07806396,95001,30,-5,-996,0,-2,0,-239,169,-553,0
1437196266.29646397,95262,31,-3,-1002,4,-1,3,-238,167,-555,0
1437196266.53727198,95524,26,4,-999,-4,-4,5,-239,167,-557,0
1437196266.87444401,95785,25,2,-1000,2,0,-5,-240,166,-550,0
1437196267.28752804,96167,26,-6,-1005,0,3,0,-238,167,-556,0
1437196267.60561585,96548,32,3,-997,3,4,2,-239,168,-557,0
1437196267.94382000,96970,26,1,-1005,0,-2,-2,-240,170,-555,0
1437196268.26697588,97392,32,-10,-995,-4,-8,-1,-238,167,-556,0
1437196268.59601188,97815,28,-1,-1004,-2,0,1,-239,167,-554,0
1437196268.81813192,98236,33,-4,-989,2,-2,-4,-237,165,-557,0
1437196269.18452787,98656,28,-1,-999,3,-3,-1,-239,168,-556,0
1437196269.56675982,99078,25,0,-994,1,6,4,-239,167,-553,0
1437196269.99860001,99461,27,-1,-996,0,-2,0,-238,165,-556,0
1437196270.39787602,99844,28,1,-992,0,2,-2,-238,167,-549,0
1437196270.87104797,100185,28,-4,-1002,0,0,0,-238,167,-556,0
1437196271.29316783,100526,24,-6,-1001,-3,7,3,-239,169,-558,0
1437196271.63933587,100868,29,-6,-1000,2,-3,0,-239,165,-550,0
1437196271.85928798,101211,26,-6,-991,-4,0,0,-237,166,-556,0
1437196272.20247984,101552,39,-4,-999,-3,0,3,-238,167,-557,0
1437196272.53167200,101894,32,0,-1002,0,0,0,-240,167,-551,0
1437196272.75383186,102236,34,-1,-982,0,-1,2,-239,167,-556,0
1437196273.20189190,102577,24,2,-991,2,-2,-4,-239,167,-557,0
1437196273.53906798,102919,27,-1,-992,0,-6,3,-239,167,-551,0
1437196273.76116800,103261,30,-5,-995,-4,2,-7,-239,167,-555,0
1437196274.12730002,103603,31,0,-995,-2,-4,-2,-239,167,-558,0
1437196274.46941590,103945,19,-2,-1004,3,-6,6,-238,169,-554,0
1437196275.01373196,104286,21,2,-1004,1,2,10,-238,165,-554,0
1437196275.43581605,104628,30,-9,-999,-7,-5,2,-238,167,-555,0
1437196275.78200388,104970,24,-9,-988,-2,1,5,-239,168,-555,0
1437196276.00316000,105311,34,2,-1007,-2,-4,0,-238,167,-556,0
1437196276.34619999,105653,32,0,-993,-1,-5,2,-240,168,-554,0
1437196276.67452788,105995,27,-5,-994,0,6,0,-241,170,-555,0
1437196277.08555984,106337,27,-1,-1003,3,4,-8,-238,169,-557,0
1437196277.43984389,106679,24,8,-995,0,-5,0,-239,168,-555,0
1437196277.85296798,107020,31,-3,-994,0,7,-12,-240,169,-556,0
1437196278.28000784,107363,23,-7,-994,-3,1,0,-237,164,-553,0
1437196278.51928401,107704,30,-13,-1000,1,-3,4,-237,166,-555,0
1437196278.78674388,108046,30,-1,-999,4,-8,0,-240,169,-555,0
1437196279.12649202,108387,28,-5,-997,-2,-1,1,-240,168,-551,0
1437196279.36462784,108729,19,-20,-1000,5,-9,0,-241,164,-555,0
1437196279.64558387,109071,32,-3,-999,5,-8,0,-242,158,-555,0
1437196280.13097191,109412,28,-2,-995,0,0,2,-240,159,-558,0
1437196280.60415602,109754,26,-1,-1009,0,-1,-10,-241,161,-556,0
1437196281.38444805,110437,28,-4,-1000,3,0,-6,-240,160,-556,0
1437196281.62134790,110779,33,-6,-993,-1,-1,-4,-241,162,-555,0
1437196281.88965201,111161,30,-4,-1013,2,5,2,-241,162,-553,0
1437196282.22869587,111542,27,0,-997,2,0,4,-240,161,-552,0
1437196282.47174382,111925,32,-10,-994,3,2,-6,-241,162,-555,0
1437196282.82124782,112306,28,-6,-992,0,0,-8,-240,160,-553,0
1437196283.85328794,113319,22,3,-1009,-1,-3,0,-242,148,-553,0
1437196284.37667990,113660,29,-1,-993,2,2,-8,-240,154,-555,0
1437196284.62270784,114001,33,2,-997,1,0,-10,-240,154,-555,0
1437196284.94780803,114341,37,20,-976,-10,8,-5,-243,106,-559,0
1437196285.36405182,114682,34,26,-1015,-17,6,-9,-243,104,-561,0
1437196285.61727595,115024,-39,-49,-1110,-18,231,0,-246,10,-573,0
1437196285.95829988,115363,44,-29,-1064,24,-149,-166,-207,16,-580,0
1437196286.23919988,115704,59,34,-1003,84,-232,-266,-241,18,-574,0
1437196286.54359198,116043,70,-2,-997,-20,44,-105,-249,-38,-578,0
1437196286.96988392,116384,26,51,-1102,-77,-69,-31,-248,-66,-586,0
1437196287.27092004,116726,84,100,-1012,13,-19,595,-252,-50,-576,0
1437196287.54797196,117027,62,31,-1021,-58,113,995,-214,-10,-581,0
1437196287.99013186,117330,36,26,-1074,-35,-18,1036,-160,41,-584,0
1437196288.25526404,117632,51,-73,-935,-10,63,1152,-100,85,-577,0
1437196288.60945201,117935,46,-25,-1035,-66,-94,763,-23,81,-580,0
1437196289.05668402,118236,9,10,-910,-49,77,-159,1,129,-571,0
1437196289.40907192,118537,78,7,-806,47,16,-355,-1,147,-565,0
1437196289.71982002,118836,35,-53,-835,-27,-3,-244,-24,147,-568,0
1437196290.01689196,119138,30,-7,-904,-30,1,-133,-35,154,-568,0
1437196290.34006405,119438,55,35,-814,46,-77,-53,-49,160,-566,0
1437196290.62333584,119741,-18,-69,-1012,41,-85,-72,-64,139,-566,0
1437196290.94932389,120043,91,62,-907,-8,23,92,-75,134,-572,0
1437196291.33462787,120345,80,18,-918,-525,53,153,-70,155,-557,0
1437196291.56452799,120648,70,27,-1062,466,109,74,-45,133,-546,0
1437196291.85071182,120948,68,58,-1198,14,52,-77,-32,65,-569,0
1437196292.19509602,121250,67,14,-1080,82,24,164,-30,106,-565,0
1437196292.65124393,121589,79,106,-1026,-54,-27,681,-3,105,-568,0
1437196292.99232793,121931,20,-72,-979,-93,-32,740,56,107,-562,0
1437196293.34238005,122271,9,22,-1058,3,-20,733,95,85,-559,0
1437196293.85045195,122653,102,-54,-851,-36,1038,319,169,36,-540,0
1437196294.15362787,123037,72,55,-1095,-7,0,-135,285,-9,-470,0
1437196294.41881585,123420,119,-5,-1051,3,100,-200,266,2,-481,0
1437196294.67398405,123845,97,-25,-1110,28,-25,-32,254,7,-481,0
1437196295.03904796,124269,112,-3,-1119,-28,47,67,253,-6,-489,0
1437196295.34411597,124694,120,-13,-1165,83,-49,-5,249,-6,-488,0
1437196295.68529987,125119,167,-21,-1003,-12,-30,18,250,0,-487,0
1437196296.06359982,125545,173,103,-1019,19,-429,15,254,-6,-492,0
1437196296.61780000,125972,217,148,-829,-56,-1251,48,132,42,-565,0
1437196297.10991192,126355,152,17,-1115,-70,-203,-114,-68,51,-587,0
1437196297.45157599,126738,36,59,-933,-146,1236,-163,-59,71,-577,0
1437196297.77620792,127122,106,72,-961,83,129,-67,121,69,-554,0
1437196298.16460395,127505,68,142,-1293,1413,-153,3,133,-59,-570,0
1437196298.40698004,127889,120,-2,-1204,-39,55,-188,113,-184,-573,0
1437196298.85878396,128271,111,-60,-1296,674,-33,-182,112,-194,-578,0
1437196299.16272402,128656,42,-141,-1244,-54,6,-204,112,-285,-578,0
1437196299.52507186,129039,86,-44,-1195,105,-97,-176,101,-260,-578,0
1437196299.89212799,129382,151,-179,-927,-1371,-148,-199,95,-213,-587,0
1437196300.28819990,129725,208,-184,-1100,-142,-225,150,58,106,-541,0
1437196300.72138786,130069,56,-128,-878,182,-25,184,56,163,-538,0
1437196300.98945999,130413,10,-121,-855,-22,49,44,94,143,-541,0
1437196301.29857588,130756,-1,-89,-902,-8,86,61,97,131,-541,0
1437196301.57767987,131058,51,-148,-889,-625,-71,-60,98,208,-486,0
1437196301.92477989,131361,7,-24,-1117,-85,-83,-44,70,288,-464,0
1437196302.28334785,131664,87,-3,-1069,76,-59,-126,56,309,-449,0
1437196302.69640398,131967,88,-2,-1449,545,-108,-142,27,167,-483,0
1437196303.03043199,132270,100,-44,-1079,-205,-561,-127,21,121,-546,0
1437196303.30439186,132574,80,28,-1155,-98,-59,-176,-38,163,-523,0
1437196303.53655982,132877,49,50,-1074,3,-137,-166,-55,187,-516,0
1437196303.88680792,133180,0,104,-1092,-88,164,70,-83,182,-516,0
1437196304.24377990,133483,-10,116,-958,31,325,656,-14,230,-518,0
1437196304.51417589,133786,8,123,-662,-153,-263,1310,80,204,-524,0
1437196304.82402802,134087,73,110,-910,77,-961,999,133,98,-550,0
