timestamp,VIBRATION.time_usec,VIBRATION.vibration_x,VIBRATION.vibration_y,VIBRATION.vibration_z,VIBRATION.clipping_0,VIBRATION.clipping_1,VIBRATION.clipping_2
1437195928.15361595,103658292,0.03247526288032532,0.034360989928245544,0.0438782162964344,0,0,0
1437195928.45711994,104380609,0.03049340657889843,0.030484672635793686,0.04290952533483505,0,0,0
1437195928.80645585,105224466,0.031088178977370262,0.029130056500434875,0.043629083782434464,0,0,0
1437195929.11641598,106187465,0.03320558741688728,0.03706895187497139,0.057596150785684586,0,0,0
1437195929.81202793,107192051,0.029029780998826027,0.030258744955062866,0.038739223033189774,0,0,0
1437195930.70519590,108116423,0.03309251368045807,0.028681088238954544,0.04080059379339218,0,0,0
1437195931.61605597,108960699,0.03387977555394173,0.030838200822472572,0.04815171658992767,0,0,0
1437195932.41502404,109724582,0.03313438594341278,0.030298901721835136,0.03818782418966293,0,0,0
1437195933.18918800,110487413,0.032089561223983765,0.03472241014242172,0.0355672761797905,0,0,0
1437195933.88741994,111250652,0.04573357477784157,0.05070960894227028,0.08311063051223755,0,0,0
1437195934.44867587,111933804,0.03500794619321823,0.03232701122760773,0.04213820397853851,0,0,0
1437195935.13197994,112535406,0.031775206327438354,0.029564639553427696,0.04132433980703354,0,0,0
1437195935.74731588,113137746,0.029855597764253616,0.032157786190509796,0.04267400875687599,0,0,0
1437195936.19542384,113660551,0.04457193613052368,0.0536222867667675,0.09914620220661163,0,0,0
1437195936.78067589,114182306,0.03257947042584419,0.033470503985881805,0.041317667812108994,0,0,0
1437195937.22888398,114626276,0.029298042878508568,0.03089778497815132,0.04006091505289078,0,0,0
1437195937.63105202,115068187,0.03449432924389839,0.029470529407262802,0.04341656342148781,0,0,0
1437195938.16409183,115469646,0.0316651426255703,0.02992507629096508,0.04496782645583153,0,0,0
1437195938.48438787,115871750,0.030030129477381706,0.029310351237654686,0.04168964549899101,0,0,0
1437195938.77836800,116274274,0.04065705090761185,0.052793703973293304,0.10666906088590622,0,0,0
1437195939.26256800,116636251,0.03390570729970932,0.037654634565114975,0.061581939458847046,0,0,0
1437195939.71188784,116998302,0.0324273556470871,0.03220798447728157,0.04045289382338524,0,0,0
1437195940.03087997,117360040,0.032452505081892014,0.03236972913146019,0.03429144248366356,0,0,0
1437195940.25332403,117721334,0.031319759786129,0.030319299548864365,0.03863004222512245,0,0,0
1437195940.71115994,118083252,0.030145084485411644,0.027629313990473747,0.03592676296830177,0,0,0
1437195940.99120784,118405203,0.03369360789656639,0.030836518853902817,0.039159007370471954,0,0,0
1437195941.44267201,118726474,0.036941010504961014,0.04119278863072395,0.08590952306985855,0,0,0
1437195941.84469199,119048307,0.041176870465278625,0.04885884001851082,0.06684567779302597,0,0,0
1437195942.33788395,119369159,0.031329285353422165,0.030262740328907967,0.04386826977133751,0,0,0
1437195942.75504804,119690872,0.031541723757982254,0.032523591071367264,0.04196983948349953,0,0,0
1437195943.18626404,120011772,0.03264772519469261,0.03187163546681404,0.04101390764117241,0,0,0
1437195943.50732398,120333217,0.03188621252775192,0.03173768147826195,0.04285065829753876,0,0,0
1437195943.96741986,120655289,0.03068162500858307,0.03239228576421738,0.0413658544421196,0,0,0
1437195944.20180392,121016896,0.03376372531056404,0.026194751262664795,0.03780455142259598,0,0,0
1437195944.54273987,121378156,0.03600373864173889,0.03854672238230705,0.07836472988128662,0,0,0
1437195944.91705203,121739352,0.03960847482085228,0.0506938174366951,0.07698077708482742,0,0,0
1437195945.16005182,122141719,0.029770493507385254,0.031165873631834984,0.043521661311388016,0,0,0
1437195945.40509987,122543893,0.032328493893146515,0.03263621777296066,0.03786613047122955,0,0,0
1437195945.64038801,122947134,0.03037850931286812,0.030372871086001396,0.03547118231654167,0,0,0
1437195946.03565192,123388248,0.03356173634529114,0.029565569013357162,0.04113007336854935,0,0,0
1437195946.35051584,123830348,0.03032887540757656,0.028742779046297073,0.04082212224602699,0,0,0
1437195946.76567197,124231917,0.0447162389755249,0.059456292539834976,0.09079665690660477,0,0,0
1437195947.18381596,124633028,0.032252002507448196,0.034155797213315964,0.04499091953039169,0,0,0
1437195947.67830801,125035758,0.03151891380548477,0.03219250589609146,0.04482481628656387,0,0,0
1437195948.10210800,125397439,0.028848914429545403,0.0317264162003994,0.04095939174294472,0,0,0
1437195948.68557191,125758029,0.03201790526509285,0.03205188363790512,0.037719834595918655,0,0,0
1437195949.13171983,126119621,0.03317028284072876,0.03032046929001808,0.04488668218255043,0,0,0
1437195949.36685586,126480772,0.03447479009628296,0.032921791076660156,0.05243103578686714,0,0,0
1437195949.61279202,126841914,0.042280010879039764,0.045811839401721954,0.08628696948289871,0,0,0
1437195949.96331191,127205033,0.03291426971554756,0.03231717273592949,0.04494807869195938,0,0,0
1437195950.19328785,127566564,0.03122641332447529,0.03380647674202919,0.03933767229318619,0,0,0
1437195950.61947989,127928085,0.03407549858093262,0.03038029372692108,0.03705272451043129,0,0,0
1437195951.03353190,128289261,0.03189852833747864,0.029731620103120804,0.04002635180950165,0,0,0
1437195951.45061588,128610509,0.0310544203966856,0.030782397836446762,0.042377080768346786,0,0,0
1437195951.82476401,128931913,0.03084590658545494,0.0306894201785326,0.039938922971487045,0,0,0
1437195952.08751202,129253658,0.038941774517297745,0.05515313148498535,0.11521676182746887,0,0,0
1437195952.48553205,129575599,0.0419292114675045,0.05201636254787445,0.09929404407739639,0,0,0
1437195952.75827193,129897616,0.031254108995199203,0.030654963105916977,0.04175993427634239,0,0,0
1437195953.02429199,130218945,0.02915911190211773,0.03199310228228569,0.03977760672569275,0,0,0
1437195953.34444404,130540325,0.03339219465851784,0.03038303181529045,0.04301191866397858,0,0,0
1437195953.68997598,130861572,0.03280620276927948,0.029937516897916794,0.03885190561413765,0,0,0
1437195953.92775583,131183175,0.028783690184354782,0.027190912514925003,0.03746820613741875,0,0,0
1437195954.33994794,131505728,0.03232508525252342,0.03323739022016525,0.03842982277274132,0,0,0
1437195954.58201194,131827388,0.039213214069604874,0.04021209850907326,0.07776221632957458,0,0,0
1437195954.93215585,132148697,0.0432758592069149,0.04271385073661804,0.07424360513687134,0,0,0
1437195955.17513990,132469755,0.033903755247592926,0.03180896118283272,0.04280226677656174,0,0,0
1437195955.59257197,132791285,0.034682925790548325,0.03139251470565796,0.041798025369644165,0,0,0
1437195955.96759200,133113651,0.03085673227906227,0.027290409430861473,0.04048831760883331,0,0,0
1437195956.20675588,133435292,0.03112201765179634,0.02941308729350567,0.03724423050880432,0,0,0
1437195956.44346786,133756061,0.03167860954999924,0.029775597155094147,0.04120901972055435,0,0,0
1437195956.79707599,134077386,0.0337270051240921,0.03100111521780491,0.04456591606140137,0,0,0
1437195957.06002784,134398296,0.03507111221551895,0.03952156379818916,0.08849169313907623,0,0,0
1437195957.38513184,134719767,0.04261551797389984,0.04381340742111206,0.07268998771905899,0,0,0
1437195957.79442000,135041371,0.033146582543849945,0.031691499054431915,0.04969260096549988,0,0,0
1437195958.20255589,135362799,0.03039359487593174,0.02904442511498928,0.03679103031754494,0,0,0
1437195958.52269602,135684800,0.03382471203804016,0.03195849433541298,0.043353643268346786,0,0,0
1437195958.87279201,136006567,0.03327292203903198,0.030864078551530838,0.04394323378801346,0,0,0
1437195959.21199203,136328002,0.03170465677976608,0.02696257084608078,0.03968805819749832,0,0,0
1437195959.52006793,136649825,0.03473290055990219,0.03149459883570671,0.03940635547041893,0,0,0
1437195959.76221585,136972210,0.040403105318546295,0.03692905977368355,0.07767724245786667,0,0,0
1437195960.14742804,137293813,0.040858831256628036,0.04783394932746887,0.08244852721691132,0,0,0
1437195960.49243999,137615369,0.03369243070483208,0.03729800507426262,0.05656302720308304,0,0,0
1437195960.90171599,137937709,0.03005283512175083,0.030390754342079163,0.039145082235336304,0,0,0
1437195961.24583602,138258800,0.03416749835014343,0.030333468690514565,0.03761347383260727,0,0,0
1437195961.56086802,138580798,0.03742295876145363,0.029420359060168266,0.04164201766252518,0,0,0
1437195961.90587592,138903348,0.031699784100055695,0.033481769263744354,0.03779995068907738,0,0,0
1437195962.14814401,139224495,0.03133194521069527,0.030143022537231445,0.04044259339570999,0,0,0
1437195962.59052396,139546367,0.04220462590456009,0.030509594827890396,0.052247874438762665,0,0,0
1437195962.83442402,139907723,0.03949643298983574,0.04679403826594353,0.07879771292209625,0,0,0
1437195963.24871588,140269624,0.03367576375603676,0.03529292717576027,0.04897002875804901,0,0,0
1437195963.47581983,140631221,0.03289011865854263,0.031949225813150406,0.041638899594545364,0,0,0
1437195963.87304783,140993857,0.029389455914497375,0.02918059192597866,0.040848348289728165,0,0,0
1437195964.30703592,141355247,0.03008304536342621,0.02934250794351101,0.03732207044959068,0,0,0
1437195964.69992399,141716810,0.03103894554078579,0.02958378754556179,0.03911544010043144,0,0,0
1437195964.87344003,142079692,0.030417747795581818,0.030055269598960876,0.038909610360860825,0,0,0
1437195965.21643996,142440580,0.0390254408121109,0.05924363434314728,0.10293765366077423,0,0,0
1437195965.52462387,142802345,0.03421276435256004,0.03524903953075409,0.058374859392642975,0,0,0
1437195965.75743198,143164569,0.03295082598924637,0.02965272031724453,0.0473608635365963,0,0,0
1437195966.37511587,143525674,0.0331185981631279,0.031942132860422134,0.04077266529202461,0,0,0
1437195966.77136803,143888039,0.03036079928278923,0.03509734198451042,0.045359935611486435,0,0,0
1437195967.11233592,144249708,0.03438369557261467,0.030481835827231407,0.04178880155086517,0,0,0
1437195967.53047204,144611788,0.03258047625422478,0.028247056528925896,0.039318591356277466,0,0,0
1437195967.86961198,144973633,0.046241167932748795,0.056093793362379074,0.11186577379703522,0,0,0
1437195968.13768387,145335193,0.03783199563622475,0.04181986674666405,0.07484863698482513,0,0,0
1437195968.38906002,145697066,0.03367600962519646,0.031001856550574303,0.0457664392888546,0,0,0
1437195968.62394404,146058993,0.03087921440601349,0.035526517778635025,0.04269278421998024,0,0,0
1437195969.22009587,146420998,0.033168334513902664,0.0318131148815155,0.044500138610601425,0,0,0
1437195969.46219587,146782511,0.03501151502132416,0.03175356984138489,0.04238862171769142,0,0,0
1437195969.79941583,147144547,0.03207828104496002,0.0302480049431324,0.040603406727313995,0,0,0
1437195970.25770402,147507618,0.036119550466537476,0.039902910590171814,0.08786988258361816,0,0,0
1437195970.48157597,147868663,0.04008457437157631,0.042385540902614594,0.07550740242004395,0,0,0
1437195970.91190386,148230219,0.03258860483765602,0.032096851617097855,0.04414758458733559,0,0,0
1437195971.28703189,148571622,0.032642919570207596,0.030948175117373466,0.040298011153936386,0,0,0
1437195971.53123593,148893899,0.030131792649626732,0.029196036979556084,0.0359276719391346,0,0,0
1437195971.75717998,149215641,0.03165740519762039,0.028326671570539474,0.03969141095876694,0,0,0
1437195972.22553182,149537128,0.030533168464899063,0.03007262386381626,0.04237421229481697,0,0,0
1437195972.53462005,149858536,0.032673269510269165,0.029546640813350677,0.03853057324886322,0,0,0
1437195972.87671185,150179854,0.04043322429060936,0.06585779786109924,0.1161256954073906,0,0,0
1437195973.18816400,150501517,0.03941795602440834,0.049522627145051956,0.0831921175122261,0,0,0
1437195973.41303992,150822905,0.030765080824494362,0.03257206827402115,0.04766835272312164,0,0,0
1437195973.78109598,151144734,0.029182638972997665,0.031036147847771645,0.039697304368019104,0,0,0
1437195974.00519991,151466584,0.031530581414699554,0.030201492831110954,0.041442472487688065,0,0,0
1437195974.44835997,151747388,0.031159136444330215,0.02806069701910019,0.040260739624500275,0,0,0
1437195974.81046391,152028737,0.03054569847881794,0.03139711543917656,0.04185742139816284,0,0,0
1437195975.07376790,152310164,0.029271630570292473,0.030086839571595192,0.03860233351588249,0,0,0
1437195975.38886786,152590992,0.03769214078783989,0.03304619342088699,0.05073193833231926,0,0,0
1437195975.63513589,152872457,0.044304557144641876,0.04926234111189842,0.08549430966377258,0,0,0
1437195975.88191605,153153879,0.03660639002919197,0.047594718635082245,0.08334533870220184,0,0,0
1437195976.29526782,153435815,0.0317094624042511,0.029564080759882927,0.045783575624227524,0,0,0
1437195976.51919603,153717429,0.033502135425806046,0.03162829205393791,0.039611659944057465,0,0,0
1437195976.84333587,153998530,0.029774775728583336,0.026802726089954376,0.04530784860253334,0,0,0
1437195977.29557586,154279604,0.03084767796099186,0.029351340606808662,0.03988507017493248,0,0,0
1437195977.53329992,154560699,0.03280233219265938,0.028971008956432343,0.042423080652952194,0,0,0
1437195977.76076794,154841083,0.031306128948926926,0.03183650225400925,0.042911678552627563,0,0,0
1437195978.12690401,155122590,0.03345508500933647,0.02903611585497856,0.039964839816093445,0,0,0
1437195978.39498401,155403999,0.04057076945900917,0.06571453809738159,0.1168452650308609,0,0,0
1437195978.65208387,155685785,0.03717626631259918,0.04431000351905823,0.06991416215896606,0,0,0
1437195978.98624802,156007835,0.034711457788944244,0.031244998797774315,0.04549751430749893,0,0,0
1437195979.39944005,156329318,0.029808081686496735,0.02883611060678959,0.03963204100728035,0,0,0
1437195979.62262797,156650263,0.031066235154867172,0.030523449182510376,0.043535538017749786,0,0,0
1437195979.98563600,157012529,0.034506745636463165,0.030736561864614487,0.04372603818774223,0,0,0
1437195980.25188398,157374553,0.033798325806856155,0.03149963170289993,0.038333289325237274,0,0,0
1437195980.51386404,157736558,0.03334217891097069,0.0318218469619751,0.04735850170254707,0,0,0
1437195980.84611988,158098001,0.04419909045100212,0.05114039033651352,0.09079128503799438,0,0,0
1437195981.07101989,158459469,0.036557964980602264,0.04015068709850311,0.06209046393632889,0,0,0
1437195981.68027592,158820835,0.031060701236128807,0.02776370756328106,0.03897589445114136,0,0,0
1437195982.11974788,159184212,0.03340134024620056,0.03414209559559822,0.03488965705037117,0,0,0
1437195982.43319583,159546444,0.033071260899305344,0.034285418689250946,0.043976761400699615,0,0,0
1437195982.84580803,159907210,0.0343811959028244,0.030125733464956284,0.04153204336762428,0,0,0
1437195983.12204003,160269246,0.036349400877952576,0.029746970161795616,0.04094710201025009,0,0,0
1437195983.35012794,160630324,0.044331394135951996,0.05408155173063278,0.10760335624217987,0,0,0
1437195983.61821198,160992382,0.04104499891400337,0.04849795624613762,0.08545857667922974,0,0,0
1437195983.88643599,161354177,0.035467635840177536,0.030660083517432213,0.04738522320985794,0,0,0
1437195984.33155584,161715089,0.030546922236680984,0.030875632539391518,0.05030858516693115,0,0,0
1437195984.65467596,162077069,0.03163227438926697,0.029519150033593178,0.04232579469680786,0,0,0
1437195985.08680391,162418424,0.02981438674032688,0.03158958628773689,0.03834429383277893,0,0,0
1437195985.39403987,162740012,0.02965068817138672,0.03280647099018097,0.039961542934179306,0,0,0
1437195985.95018387,163062139,0.037234846502542496,0.036842361092567444,0.07215260714292526,0,0,0
1437195986.29495597,163383875,0.0455462820827961,0.0422450490295887,0.08490704745054245,0,0,0
1437195986.60846782,163705414,0.03677200525999069,0.03896009549498558,0.06457407772541046,0,0,0
1437195987.02270794,164027448,0.029252473264932632,0.031949177384376526,0.04088136553764343,0,0,0
1437195987.28573203,164348175,0.03176093101501465,0.03240325674414635,0.04264392703771591,0,0,0
1437195987.61090803,164670632,0.02880094386637211,0.03124377317726612,0.04107819125056267,0,0,0
1437195988.05717993,164992155,0.03066088631749153,0.031009823083877563,0.04511654004454613,0,0,0
1437195988.30018783,165313560,0.03162591904401779,0.030528880655765533,0.04140673950314522,0,0,0
1437195988.64238000,165634823,0.03378014639019966,0.0344759039580822,0.05353372171521187,0,0,0
1437195989.01802802,165956078,0.03853419050574303,0.043385978788137436,0.07989010214805603,0,0,0
1437195989.25963998,166277828,0.03411799296736717,0.041382577270269394,0.0696498230099678,0,0,0
1437195989.50866389,166599522,0.03243036940693855,0.03245321288704872,0.04527023062109947,0,0,0
1437195989.74481988,166920649,0.03083263337612152,0.03230786696076393,0.04044555872678757,0,0,0
1437195989.98792386,167283062,0.03086698427796364,0.03118783049285412,0.037276823073625565,0,0,0
1437195990.33407187,167644852,0.03443286940455437,0.031243473291397095,0.040269460529088974,0,0,0
1437195990.56320405,168007240,0.03240536153316498,0.030439304187893867,0.04357154294848442,0,0,0
1437195991.16638803,168368673,0.03740881010890007,0.03890403360128403,0.08397817611694336,0,0,0
1437195991.39951587,168731412,0.03991518169641495,0.042909830808639526,0.07670170813798904,0,0,0
1437195991.67461205,169093579,0.033058397471904755,0.03216201812028885,0.047062505036592484,0,0,0
1437195992.12989593,169454638,0.03337395191192627,0.03330864757299423,0.03997017815709114,0,0,0
1437195992.42589998,169816983,0.03365837410092354,0.03332814574241638,0.04629399999976158,0,0,0
1437195992.78530788,170179176,0.030835561454296112,0.03341301903128624,0.03914955258369446,0,0,0
1437195993.19927192,170500904,0.03297264128923416,0.029908044263720512,0.04287557676434517,0,0,0
1437195993.68938804,170822438,0.03373235464096069,0.03121946193277836,0.050101667642593384,0,0,0
1437195994.02161598,171144005,0.04506789892911911,0.049653347581624985,0.09165700525045395,0,0,0
1437195994.37270784,171465412,0.03935679793357849,0.044647231698036194,0.07738027721643448,0,0,0
1437195994.61080790,171786627,0.03090711310505867,0.03230009973049164,0.0406855046749115,0,0,0
1437195994.85893583,172109239,0.03326323255896568,0.030143676325678825,0.038417749106884,0,0,0
1437195995.13503599,172430679,0.029883338138461113,0.030030524358153343,0.03953803703188896,0,0,0
1437195995.38023996,172751069,0.03493008017539978,0.028049377724528313,0.03719336539506912,0,0,0
1437195995.72557187,173072997,0.03447164595127106,0.027877235785126686,0.04048221558332443,0,0,0
1437195995.95041203,173393995,0.030375950038433075,0.027526522055268288,0.03982171788811684,0,0,0
1437195996.34167600,173716249,0.04529651254415512,0.04809281602501869,0.09326116740703583,0,0,0
1437195996.57070804,174038569,0.0382784828543663,0.03989558294415474,0.0695953518152237,0,0,0
1437195996.87581205,174359866,0.03024929389357567,0.033031120896339417,0.045201633125543594,0,0,0
1437195997.38004398,174680905,0.029977692291140556,0.029114549979567528,0.0401095449924469,0,0,0
1437195997.60410786,175001413,0.029019542038440704,0.028697052970528603,0.03807162493467331,0,0,0
1437195997.86099195,175323641,0.03002774342894554,0.03150596842169762,0.03932412713766098,0,0,0
1437195998.37841582,175644893,0.03194047883152962,0.03200308233499527,0.039215411990880966,0,0,0
1437195998.79675603,175926681,0.031543463468551636,0.027884937822818756,0.04396345466375351,0,0,0
1437195999.18428802,176208105,0.03353611379861832,0.042100727558135986,0.09296448528766632,0,0,0
1437195999.44983602,176489440,0.03953087702393532,0.03856850415468216,0.06714963167905807,0,0,0
1437195999.69195604,176770905,0.03538043051958084,0.03931908309459686,0.06601694226264954,0,0,0
1437196000.10707593,177052202,0.033132441341876984,0.026169784367084503,0.04157296195626259,0,0,0
1437196000.48535204,177334016,0.031200818717479706,0.030382251366972923,0.034429147839546204,0,0,0
1437196000.72336793,177615392,0.028551718220114708,0.03139221668243408,0.04092121124267578,0,0,0
1437196000.96045589,177937673,0.03236054629087448,0.031027253717184067,0.03775020316243172,0,0,0
1437196001.31464386,178258788,0.029193252325057983,0.03346693888306618,0.04023391753435135,0,0,0
1437196001.55672383,178580242,0.03288552910089493,0.02743789367377758,0.03703867644071579,0,0,0
1437196001.78092384,178901546,0.04227357730269432,0.058521054685115814,0.10563746094703674,0,0,0
1437196002.14209199,179264533,0.038945067673921585,0.03771262988448143,0.06627489626407623,0,0,0
1437196002.38511205,179625851,0.031763553619384766,0.028542770072817802,0.042414236813783646,0,0,0
1437196002.80214000,179987634,0.030360303819179535,0.03148532286286354,0.04315328970551491,0,0,0
1437196003.17644405,180349548,0.03458143770694733,0.03040315769612789,0.04126770421862602,0,0,0
1437196003.41055202,180710636,0.03147001191973686,0.030998170375823975,0.03699113056063652,0,0,0
1437196003.96684790,181072285,0.03002035617828369,0.029430774971842766,0.03721971809864044,0,0,0
1437196004.31103992,181434574,0.03648432716727257,0.03930122032761574,0.08836992084980011,0,0,0
1437196004.62597585,181796014,0.0373743437230587,0.04773218557238579,0.07011821120977402,0,0,0
1437196005.04024386,182157546,0.03145480155944824,0.03237650915980339,0.04701639339327812,0,0,0
1437196005.30343199,182518666,0.02816123142838478,0.03272058442234993,0.04056532308459282,0,0,0
1437196005.55931997,182880070,0.03343185409903526,0.027960030362010002,0.04338279366493225,0,0,0
1437196005.86250401,183241448,0.03159740939736366,0.030003782361745834,0.040402404963970184,0,0,0
1437196006.21979594,183603622,0.027587492018938065,0.030727749690413475,0.040381453931331635,0,0,0
1437196006.65789199,183965620,0.03363821655511856,0.036729052662849426,0.07352297753095627,0,0,0
1437196006.88302803,184327192,0.03421062231063843,0.042843155562877655,0.07130677998065948,0,0,0
1437196007.33819985,184688632,0.0364350825548172,0.038321223109960556,0.05367510765790939,0,0,0
1437196007.89943194,185049575,0.03216369077563286,0.026699969545006752,0.0362485907971859,0,0,0
1437196008.18051982,185410909,0.03223055601119995,0.03105264902114868,0.041979242116212845,0,0,0
1437196008.52577186,185772140,0.0322485975921154,0.029096359387040138,0.04038012772798538,0,0,0
1437196009.00681996,186134325,0.030506180599331856,0.03104850836098194,0.042379625141620636,0,0,0
1437196009.44126391,186496399,0.039085883647203445,0.034198861569166183,0.047228939831256866,0,0,0
1437196009.84021592,186857553,0.03704347088932991,0.04150652140378952,0.08252058923244476,0,0,0
1437196010.17730784,187219798,0.031743574887514114,0.042517904192209244,0.06376846879720688,0,0,0
1437196010.62870002,187581894,0.031339164823293686,0.030117014423012733,0.04035341739654541,0,0,0
1437196010.86273193,187943582,0.03135308250784874,0.034096505492925644,0.041016142815351486,0,0,0
1437196011.10877204,188305873,0.03120940923690796,0.027397019788622856,0.03942178934812546,0,0,0
1437196011.38787198,188667696,0.03006083332002163,0.028706567361950874,0.043578535318374634,0,0,0
1437196011.69604397,189028965,0.032216329127550125,0.029246030375361443,0.03780151531100273,0,0,0
1437196011.92407203,189390391,0.04652565345168114,0.06392514705657959,0.11140334606170654,0,0,0
1437196012.38030791,189752090,0.034513577818870544,0.043111320585012436,0.08111562579870224,0,0,0
1437196012.80144787,190113673,0.032690830528736115,0.03543978929519653,0.04418543726205826,0,0,0
1437196013.02556396,190475398,0.03281321004033089,0.03281843662261963,0.03910334035754204,0,0,0
1437196013.56979990,190796987,0.032434944063425064,0.02919568121433258,0.03896316885948181,0,0,0
1437196013.98004389,191118301,0.033099930733442307,0.030264491215348244,0.03700505942106247,0,0,0
1437196014.35815597,191439606,0.0295322947204113,0.029684390872716904,0.04060954228043556,0,0,0
1437196014.59722805,191761431,0.037863291800022125,0.033171407878398895,0.045446813106536865,0,0,0
1437196014.83343196,192083412,0.04087868705391884,0.04572298750281334,0.08149851858615875,0,0,0
1437196015.19152784,192405080,0.037870507687330246,0.046961985528469086,0.08035755157470703,0,0,0
1437196015.42960787,192726428,0.03242137283086777,0.03195422515273094,0.04033195972442627,0,0,0
1437196015.77584386,193047938,0.031225230544805527,0.033292245119810104,0.04318441078066826,0,0,0
1437196016.18392396,193369542,0.029594533145427704,0.03428492695093155,0.039906095713377,0,0,0
1437196016.52801585,193690983,0.032168060541152954,0.029151029884815216,0.03967424854636192,0,0,0
1437196016.84315205,194013171,0.03144705295562744,0.028698351234197617,0.03855694830417633,0,0,0
1437196017.26131201,194335110,0.03910982981324196,0.031094694510102272,0.05109754949808121,0,0,0
1437196017.49947596,194656404,0.03839035704731941,0.053315419703722,0.08682235330343246,0,0,0
1437196017.87265587,194977372,0.041441306471824646,0.046205323189496994,0.07499261200428009,0,0,0
1437196018.11664796,195299218,0.03202613443136215,0.03429797291755676,0.04801589623093605,0,0,0
1437196018.52991199,195621880,0.028584131971001625,0.031852446496486664,0.04242250323295593,0,0,0
1437196018.75701594,195943192,0.03532199561595917,0.029333705082535744,0.042687416076660156,0,0,0
1437196019.07627201,196264640,0.03702007606625557,0.03325575217604637,0.03621069714426994,0,0,0
1437196019.35831594,196585563,0.034560345113277435,0.02949601039290428,0.040736306458711624,0,0,0
1437196019.58638382,196906984,0.032849423587322235,0.0329747349023819,0.044093143194913864,0,0,0
1437196019.94755602,197229097,0.04431232064962387,0.050767138600349426,0.10609620809555054,0,0,0
1437196020.21058798,197550099,0.037404656410217285,0.040847428143024445,0.06520023941993713,0,0,0
1437196020.60958004,197871223,0.032360661774873734,0.032163918018341064,0.04748164117336273,0,0,0
1437196020.88092399,198192537,0.03101513907313347,0.03104502707719803,0.03944754973053932,0,0,0
1437196021.24499989,198514039,0.031002018600702286,0.028406521305441856,0.03721175715327263,0,0,0
1437196021.64315605,198835516,0.0322042852640152,0.03088921308517456,0.03492361307144165,0,0,0
1437196021.98138785,199157276,0.032094962894916534,0.03593507409095764,0.03676990047097206,0,0,0
1437196022.43244386,199478515,0.02839111164212227,0.032647646963596344,0.04019756615161896,0,0,0
1437196022.67159200,199800518,0.04496170952916145,0.05255258083343506,0.11955250799655914,0,0,0
1437196022.89864802,200122208,0.03671608120203018,0.03917316347360611,0.06932629644870758,0,0,0
1437196023.29495192,200444483,0.033590130507946014,0.03436795994639397,0.04937022179365158,0,0,0
1437196023.70795989,200766003,0.029813528060913086,0.03134935349225998,0.04169458523392677,0,0,0
1437196024.05318403,201087214,0.03261449187994003,0.031467974185943604,0.03899355232715607,0,0,0
1437196024.39826798,201409061,0.03132421895861626,0.027482887730002403,0.03612053021788597,0,0,0
1437196024.71248794,201730542,0.03491441160440445,0.04170118644833565,0.07491924613714218,0,0,0
1437196024.96561193,202052286,0.057334501296281815,0.08051437139511108,0.05515496805310249,0,0,0
1437196025.32877994,202373718,0.06740796566009521,0.09452293813228607,0.14428812265396118,0,0,0
1437196025.56872392,202694667,0.052102167159318924,0.0618494376540184,0.09160203486680984,0,0,0
1437196025.79347587,203016075,0.044672586023807526,0.053382258862257004,0.05905933678150177,0,0,0
1437196026.18999195,203336923,0.0335882268846035,0.036899320781230927,0.04424316808581352,0,0,0
1437196026.56822395,203658900,0.038875699043273926,0.05057878419756889,0.038742419332265854,0,0,0
1437196026.80214787,203980535,0.15361981093883514,0.245526522397995,0.2215680480003357,0,0,0
1437196027.22440791,204302104,0.07333803921937943,0.09110523760318756,0.1240571066737175,0,0,0
1437196027.56516004,204622894,0.035383328795433044,0.0378887839615345,0.04940813034772873,0,0,0
1437196027.90954399,204944695,0.03404517099261284,0.029604388400912285,0.034710586071014404,0,0,0
1437196028.25797200,205266456,0.031845953315496445,0.029726233333349228,0.04043593630194664,0,0,0
1437196028.63709998,205588149,0.03637351468205452,0.050073251128196716,0.04693842679262161,0,0,0
1437196028.87023997,205909105,0.030408333986997604,0.029727958142757416,0.03488870710134506,0,0,0
1437196029.49946404,206270710,0.033591508865356445,0.030721116811037064,0.04121873527765274,0,0,0
1437196029.91175985,206631881,0.03203268349170685,0.030827287584543228,0.039397452026605606,0,0,0
1437196030.32466793,206993557,0.03079143352806568,0.03174223005771637,0.03783126920461655,0,0,0
1437196030.70389199,207355629,0.028212709352374077,0.02965821698307991,0.03775292634963989,0,0,0
1437196030.94291997,207717967,0.030404934659600258,0.029925934970378876,0.04144204407930374,0,0,0
1437196031.18169594,208079435,0.033827509731054306,0.03125491365790367,0.03444408252835274,0,0,0
1437196031.53334403,208440809,0.03185013681650162,0.03268496319651604,0.046265315264463425,0,0,0
1437196031.77143598,208843062,0.03413810208439827,0.030692461878061295,0.041728127747774124,0,0,0
1437196032.01354790,209245595,0.030255530029535294,0.031475506722927094,0.04022415354847908,0,0,0
1437196032.36870384,209687271,0.03202628344297409,0.03252001851797104,0.03556240350008011,0,0,0
1437196032.73984790,210129295,0.030926840379834175,0.03291869908571243,0.04223174229264259,0,0,0
1437196033.19505596,210572343,0.030677126720547676,0.03102940320968628,0.041018933057785034,0,0,0
1437196033.51007605,210974361,0.030043119564652443,0.028638765215873718,0.039962537586688995,0,0,0
1437196033.92619586,211376836,0.03243270888924599,0.03228875994682312,0.03691491857171059,0,0,0
1437196034.67170405,211738621,0.030703142285346985,0.029939059168100357,0.04478608816862106,0,0,0
1437196035.08887601,212100286,0.03446170315146446,0.02769172377884388,0.04113340377807617,0,0,0
1437196035.51993203,212461805,0.030222009867429733,0.028737574815750122,0.03571360185742378,0,0,0
1437196035.84109187,212823219,0.030469439923763275,0.0308984387665987,0.04200604557991028,0,0,0
1437196036.21529984,213185181,0.02970951609313488,0.04505171254277229,0.04769478365778923,0,0,0
1437196036.45822001,213547198,0.03284532204270363,0.030765676870942116,0.039505358785390854,0,0,0
1437196036.71743584,213908511,0.03545118123292923,0.029946761205792427,0.03891751915216446,0,0,0
1437196037.05141997,214269571,0.03213626518845558,0.03190141171216965,0.04327542334794998,0,0,0
1437196037.36466002,214630874,0.03233081474900246,0.030779575929045677,0.03576900064945221,0,0,0
1437196037.57775593,214991694,0.03257874399423599,0.03126101568341255,0.04117131978273392,0,0,0
1437196037.93102789,215353869,0.030915338546037674,0.03048759326338768,0.0391952320933342,0,0,0
1437196038.19400001,215675375,0.030451824888586998,0.027530206367373466,0.04209253564476967,0,0,0
1437196038.58918405,215996257,0.03214568272233009,0.03490891307592392,0.0396648533642292,0,0,0
1437196038.84327984,216318359,0.03347112610936165,0.03016320802271366,0.0368848480284214,0,0,0
1437196039.36242390,216639411,0.0305439792573452,0.02989385835826397,0.042561836540699005,0,0,0
1437196039.77686405,216920480,0.02930670976638794,0.03203681856393814,0.04208310693502426,0,0,0
1437196040.22292805,217200867,0.03163820132613182,0.028444858267903328,0.035228949040174484,0,0,0
1437196040.57094789,217482710,0.03282426670193672,0.03334738314151764,0.038923751562833786,0,0,0
1437196040.88415194,217764647,0.032375797629356384,0.032353080809116364,0.043128225952386856,0,0,0
1437196041.10817599,218045910,0.029669759795069695,0.031232865527272224,0.04041659086942673,0,0,0
1437196041.42547584,218366692,0.029416777193546295,0.03130762279033661,0.044613707810640335,0,0,0
1437196041.67848802,218687398,0.02806255966424942,0.03159727901220322,0.040996938943862915,0,0,0
1437196041.92145205,219008819,0.027585744857788086,0.030068976804614067,0.039042118936777115,0,0,0
1437196042.33484387,219371473,0.028939707204699516,0.03011336550116539,0.03816007450222969,0,0,0
1437196042.74788785,219733419,0.031906481832265854,0.035358794033527374,0.03797392547130585,0,0,0
1437196043.16532397,220095423,0.029635416343808174,0.030708307400345802,0.040638990700244904,0,0,0
1437196043.53941202,220456949,0.034171707928180695,0.0349610410630703,0.03942335769534111,0,0,0
1437196043.77732801,220818639,0.0350341722369194,0.032131846994161606,0.04005275294184685,0,0,0
1437196044.02345204,221179475,0.033268753439188004,0.03292158618569374,0.040169522166252136,0,0,0
1437196044.37366390,221581656,0.026691699400544167,0.029027296230196953,0.04027066007256508,0,0,0
1437196044.70766401,221984062,0.0327373705804348,0.03195852413773537,0.04155556857585907,0,0,0
1437196044.94973183,222386495,0.03129229322075844,0.0319867841899395,0.04145580530166626,0,0,0
1437196045.40906787,222787689,0.029090214520692825,0.03217269852757454,0.035918693989515305,0,0,0
1437196045.72405601,223188704,0.032293688505887985,0.03217025846242905,0.03818183392286301,0,0,0
1437196046.32937598,223590406,0.03317072615027428,0.03168312460184097,0.04012465476989746,0,0,0
1437196046.64467597,223951674,0.02932088077068329,0.031188804656267166,0.051052071154117584,0,0,0
1437196047.05782390,224313581,0.03506828099489212,0.030583523213863373,0.04040401801466942,0,0,0
1437196047.30189204,224675706,0.03167088329792023,0.029010675847530365,0.039526283740997314,0,0,0
1437196047.56991601,225036286,0.03188120573759079,0.029454249888658524,0.04330864176154137,0,0,0
1437196048.09716797,225397525,0.030098628252744675,0.028915125876665115,0.03672873228788376,0,0,0
1437196048.35420799,225718968,0.02912631444633007,0.030078280717134476,0.040771402418613434,0,0,0
1437196048.60054803,226039640,0.030722975730895996,0.03308052569627762,0.0346231572329998,0,0,0
1437196049.02654386,226361815,0.032839853316545486,0.032159894704818726,0.040669240057468414,0,0,0
1437196049.29269600,226642846,0.03521357849240303,0.03255045786499977,0.044532373547554016,0,0,0
1437196049.60878396,226924632,0.03211413696408272,0.030175400897860527,0.041991278529167175,0,0,0
1437196049.86381984,227206317,0.03129977360367775,0.03198501467704773,0.045819830149412155,0,0,0
1437196050.19806790,227487484,0.03191479295492172,0.029933832585811615,0.040026865899562836,0,0,0
1437196050.61126804,227768583,0.03234762325882912,0.030159274116158485,0.041873086243867874,0,0,0
1437196050.83751988,228049077,0.032460056245326996,0.03233069181442261,0.045084744691848755,0,0,0
1437196051.15936399,228330653,0.03269615396857262,0.029440218582749367,0.0377887487411499,0,0,0
1437196051.61061597,228612397,0.03019663318991661,0.03392176702618599,0.037602685391902924,0,0,0
1437196051.84967184,228893997,0.03374204412102699,0.029026085510849953,0.03756250441074371,0,0,0
1437196052.07576799,229175504,0.0303929653018713,0.028522474691271782,0.036516062915325165,0,0,0
1437196052.43797994,229456653,0.03235834836959839,0.03027234971523285,0.040580928325653076,0,0,0
1437196052.68055201,229737614,0.030697589740157127,0.030874833464622498,0.047262340784072876,0,0,0
1437196052.90305185,230018225,0.03074970282614231,0.03024604544043541,0.038919154554605484,0,0,0
1437196053.33047199,230339707,0.03613490238785744,0.03176823630928993,0.04362771660089493,0,0,0
1437196053.64346004,230661297,0.03301388770341873,0.027589503675699234,0.037766825407743454,0,0,0
1437196054.13354802,230983963,0.030744602903723717,0.02854059264063835,0.04000731557607651,0,0,0
1437196054.47585988,231305469,0.030108746141195297,0.03188416734337807,0.03655702620744705,0,0,0
1437196054.95797586,231626534,0.033186230808496475,0.03520704805850983,0.038793642073869705,0,0,0
1437196055.34627986,231947499,0.03055550530552864,0.030240468680858612,0.03922135755419731,0,0,0
1437196055.57940793,232309207,0.035057537257671356,0.030678091570734978,0.041075509041547775,0,0,0
1437196055.99131989,232670697,0.03144996240735054,0.028784360736608505,0.03859740495681763,0,0,0
1437196056.33861184,233032889,0.030168408527970314,0.03052867390215397,0.04110121354460716,0,0,0
1437196056.74786782,233394893,0.03264344856142998,0.032446395605802536,0.03766820952296257,0,0,0
1437196057.09586787,233876615,0.03358583524823189,0.035341955721378326,0.039689384400844574,0,0,0
1437196057.36391997,234358576,0.029434766620397568,0.03098246455192566,0.041647087782621384,0,0,0
1437196057.59805202,234881034,0.028898805379867554,0.02851567231118679,0.03910865634679794,0,0,0
1437196057.93618798,235404176,0.02815179154276848,0.03315325453877449,0.043042752891778946,0,0,0
1437196058.52845192,235845855,0.029837945476174355,0.0295457374304533,0.040515538305044174,0,0,0
1437196059.02361202,236287615,0.03110874444246292,0.03358827531337738,0.04169962927699089,0,0,0
1437196059.30376387,236730179,0.0320545956492424,0.02971598133444786,0.04143166169524193,0,0,0
1437196059.85204005,237171630,0.03110433742403984,0.030818361788988113,0.041313499212265015,0,0,0
1437196060.13213205,237614388,0.030664455145597458,0.028576552867889404,0.035278137773275375,0,0,0
1437196060.62441587,238056004,0.03170746564865112,0.0302704107016325,0.042499955743551254,0,0,0
1437196061.03948402,238458672,0.031196560710668564,0.03309730067849159,0.0400373674929142,0,0,0
1437196061.42566800,238820781,0.03478938341140747,0.03197596222162247,0.039447199553251266,0,0,0
1437196061.92688394,239181699,0.03364091366529465,0.02921653352677822,0.038547154515981674,0,0,0
1437196062.33518386,239543541,0.0337042436003685,0.030989212915301323,0.0378834493458271,0,0,0
1437196062.74314785,239905321,0.030816171318292618,0.02992863394320011,0.03839953988790512,0,0,0
1437196063.06338382,240267042,0.031195862218737602,0.0296182744204998,0.038950249552726746,0,0,0
1437196063.41352797,240629308,0.031000666320323944,0.02817925065755844,0.04154334217309952,0,0,0
1437196063.67657590,240990595,0.03489695489406586,0.030285323038697243,0.03896011784672737,0,0,0
1437196064.03065205,241352315,0.029650313779711723,0.0327574759721756,0.03971023112535477,0,0,0
1437196064.25380802,241713817,0.034927964210510254,0.030772615224123,0.035677868872880936,0,0,0
1437196064.89627194,242076005,0.03304600715637207,0.030689306557178497,0.03913791850209236,0,0,0
1437196065.27121592,242438526,0.031634729355573654,0.03740786761045456,0.03972947224974632,0,0,0
1437196065.51247191,242799961,0.029638348147273064,0.032936934381723404,0.04096859693527222,0,0,0
1437196065.72542787,243161900,0.03404361009597778,0.03129486367106438,0.042393576353788376,0,0,0
1437196066.30473185,243523706,0.028971802443265915,0.027736160904169083,0.03797854855656624,0,0,0
1437196066.54681182,243845813,0.029533883556723595,0.02754748798906803,0.04113629087805748,0,0,0
1437196066.75993991,244167681,0.030267946422100067,0.02946949563920498,0.04084275662899017,0,0,0
1437196067.02013993,244488492,0.03135130554437637,0.03038010373711586,0.03324650228023529,0,0,0
1437196067.54730797,244809737,0.03284987062215805,0.03004773147404194,0.04082987830042839,0,0,0
1437196067.78131986,245090877,0.03132769465446472,0.02740737795829773,0.035425104200839996,0,0,0
1437196068.02847600,245372247,0.03021087870001793,0.026780029758810997,0.039066385477781296,0,0,0
1437196068.40965605,245653659,0.03067636862397194,0.031264886260032654,0.04203883558511734,0,0,0
1437196068.65073586,245934896,0.03190542757511139,0.031715985387563705,0.036558300256729126,0,0,0
1437196069.03989601,246216877,0.030211763456463814,0.02918309159576893,0.0372389554977417,0,0,0
1437196069.45107198,246498444,0.03383255377411842,0.028587404638528824,0.04044968634843826,0,0,0
1437196069.86427999,246779238,0.03087795153260231,0.030592288821935654,0.03821663558483124,0,0,0
1437196070.20441604,247060422,0.029151564463973045,0.02971036732196808,0.03858529031276703,0,0,0
1437196070.62363982,247340780,0.03032654896378517,0.033640630543231964,0.047001663595438004,0,0,0
1437196071.03293586,247621944,0.03208645433187485,0.02923615090548992,0.04228721931576729,0,0,0
1437196071.42489982,247903365,0.028957488015294075,0.03132089972496033,0.04091471806168556,0,0,0
1437196071.68594384,248185110,0.031326744705438614,0.03304148092865944,0.03910841792821884,0,0,0
1437196071.93012404,248466878,0.03283349797129631,0.02987036108970642,0.036423441022634506,0,0,0
1437196072.17017603,248868267,0.031707074493169785,0.03315863385796547,0.03937240689992905,0,0,0
1437196072.51636004,249270164,0.03492388501763344,0.031181979924440384,0.04024271294474602,0,0,0
1437196072.76346397,249671591,0.03011075221002102,0.03212665766477585,0.040547631680965424,0,0,0
1437196072.97656798,250193663,0.03830140084028244,0.044176917523145676,0.05003192648291588,0,0,0
1437196073.41469598,250716285,0.030140234157443047,0.03112703002989292,0.04024098813533783,0,0,0
1437196073.88391995,251279428,0.03324154391884804,0.03088987246155739,0.0399850569665432,0,0,0
1437196074.39419198,251760580,0.030641337856650352,0.02869209088385105,0.042791612446308136,0,0,0
1437196074.78131199,252183212,0.03355683386325836,0.033195678144693375,0.03716928884387016,0,0,0
1437196075.45159197,252604791,0.029812075197696686,0.02870108187198639,0.03967135027050972,0,0,0
1437196075.79279184,252986976,0.029218550771474838,0.03023163042962551,0.041821252554655075,0,0,0
1437196076.21091604,253367961,0.030662748962640762,0.030866369605064392,0.04261738434433937,0,0,0
1437196076.69205594,253749555,0.03373290225863457,0.03066718392074108,0.039405956864356995,0,0,0
1437196077.03223991,254131077,0.030286839231848717,0.029708074405789375,0.04045608267188072,0,0,0
1437196077.34239602,254512977,0.030386870726943016,0.030405720695853233,0.040873441845178604,0,0,0
1437196077.86060405,254895045,0.032761100679636,0.03211964666843414,0.041900359094142914,0,0,0
1437196078.30786395,255277336,0.026855936273932457,0.027969369664788246,0.03667646273970604,0,0,0
1437196078.55269599,255657899,0.027564896270632744,0.027725547552108765,0.04353202134370804,0,0,0
1437196078.78015590,256039564,0.03325872868299484,0.02710263803601265,0.041315432637929916,0,0,0
1437196079.04799604,256420730,0.03381046652793884,0.03145528584718704,0.038095925003290176,0,0,0
1437196079.35812783,256802696,0.03380708768963814,0.031085137277841568,0.034771062433719635,0,0,0
1437196079.86052394,257184234,0.031792838126420975,0.03153908625245094,0.04280484840273857,0,0,0
1437196080.44558787,257565914,0.03235750272870064,0.028665967285633087,0.04131203517317772,0,0,0
1437196080.68879199,257947867,0.03198995068669319,0.03157941997051239,0.04045825079083443,0,0,0
1437196081.00412393,258329006,0.03253277391195297,0.028125226497650146,0.03575068339705467,0,0,0
1437196081.42205596,258710677,0.031663522124290466,0.028885958716273308,0.0386255607008934,0,0,0
1437196081.66011596,259091699,0.03006615675985813,0.02942459098994732,0.038375746458768845,0,0,0
1437196082.18247199,259474500,0.03159749135375023,0.03201054409146309,0.03882795199751854,0,0,0
1437196098.54198003,15987952,0.033870894461870193,0.03202705830335617,0.04058830440044403,0,0,0
1437196098.77013183,16229167,0.027542127296328545,0.029502490535378456,0.03690803796052933,0,0,0
1437196099.08918786,16470916,0.03216303512454033,0.02748512290418148,0.04091929644346237,0,0,0
1437196099.40696001,16711921,0.030708858743309975,0.027433058246970177,0.04088236391544342,0,0,0
1437196099.78454804,16952938,0.033269040286540985,0.03068070486187935,0.04058922827243805,0,0,0
1437196100.01659203,17194447,0.03330271691083908,0.03195541724562645,0.04355224594473839,0,0,0
1437196100.34280801,17435122,0.031061269342899323,0.03190149739384651,0.038153860718011856,0,0,0
1437196100.75183201,17676957,0.031270261853933334,0.031264226883649826,0.037055809050798416,0,0,0
1437196101.23817182,17918075,0.030971312895417213,0.0313609279692173,0.04022274538874626,0,0,0
1437196101.65027595,18158947,0.034365616738796234,0.03332554176449776,0.044096920639276505,0,0,0
1437196102.08042383,18400524,0.035789091140031815,0.03260482847690582,0.03817965090274811,0,0,0
1437196102.50763583,18761843,0.03138639032840729,0.029656389728188515,0.040420059114694595,0,0,0
1437196102.85291195,19123268,0.03214256837964058,0.02933870628476143,0.040545668452978134,0,0,0
1437196103.09700394,19484050,0.03239624947309494,0.029532669112086296,0.04226764291524887,0,0,0
1437196103.32910395,19845835,0.03077353909611702,0.03142393007874489,0.04166391119360924,0,0,0
1437196103.61211991,20208590,0.03078817017376423,0.028027670457959175,0.03436852991580963,0,0,0
1437196103.85925603,20696655,0.03517647832632065,0.03233882039785385,0.06259868294000626,0,0,0
1437196104.09933591,21178777,0.03273183852434158,0.03334633633494377,0.0445045530796051,0,0,0
1437196104.32828784,21782009,0.030217641964554787,0.028104953467845917,0.042866986244916916,0,0,0
1437196104.91493201,22424836,0.03210273012518883,0.03285808488726616,0.044521354138851166,0,0,0
1437196105.48088002,23067843,0.0315757617354393,0.03251086175441742,0.041163090616464615,0,0,0
1437196106.16205597,23629490,0.03012210503220558,0.03143099322915077,0.04144982621073723,0,0,0
1437196106.58629990,24111926,0.032846469432115555,0.02844766527414322,0.03745264187455177,0,0,0
1437196107.23567605,24594743,0.032666563987731934,0.030896713957190514,0.042712703347206116,0,0,0
1437196107.57581997,25016215,0.029760990291833878,0.033944014459848404,0.034349482506513596,0,0,0
1437196107.91897583,25437150,0.03047919273376465,0.03177279978990555,0.04032203182578087,0,0,0
1437196108.50525999,25858499,0.034943874925374985,0.032207414507865906,0.03964557871222496,0,0,0
1437196108.89140391,26240327,0.03378940001130104,0.030554315075278282,0.037707746028900146,0,0,0
1437196109.32654786,26623570,0.03220251575112343,0.03114248625934124,0.03901774808764458,0,0,0
1437196109.68584394,27005253,0.034682776778936386,0.027303442358970642,0.042008329182863235,0,0,0
1437196109.91975999,27385293,0.032362788915634155,0.0324506014585495,0.038169555366039276,0,0,0
1437196110.47817183,27767310,0.03226524591445923,0.028773969039320946,0.040332261472940445,0,0,0
1437196110.83412385,28148651,0.03346598520874977,0.026148755103349686,0.04262915626168251,0,0,0
1437196111.16824794,28531739,0.030915264040231705,0.031415555626153946,0.04317706450819969,0,0,0
1437196111.37831998,28912998,0.031223872676491737,0.03233069181442261,0.03895346820354462,0,0,0
1437196112.00239587,29294428,0.030524980276823044,0.02752847969532013,0.040513504296541214,0,0,0
1437196112.40966392,29676248,0.03320789709687233,0.029431313276290894,0.04101653769612312,0,0,0
1437196112.84429193,30058132,0.029292238876223564,0.029738470911979675,0.042448777705430984,0,0,0
1437196113.20408797,30439636,0.032830268144607544,0.030728377401828766,0.043204933404922485,0,0,0
1437196113.62148786,30822161,0.03414031118154526,0.031504299491643906,0.04219893366098404,0,0,0
1437196113.86432791,31203251,0.03227638080716133,0.031031599268317223,0.038113661110401154,0,0,0
1437196114.20155597,31585598,0.03040701523423195,0.031284090131521225,0.04089007526636124,0,0,0
1437196114.65687990,31966648,0.03164253011345863,0.02903854101896286,0.036415956914424896,0,0,0
1437196114.89887595,32347983,0.03221377357840538,0.030064402148127556,0.03851211071014404,0,0,0
1437196115.15999985,32729979,0.03273703530430794,0.03213641792535782,0.03896505385637283,0,0,0
1437196115.68723202,33111809,0.032889291644096375,0.03138686344027519,0.038573045283555984,0,0,0
1437196115.91138005,33493697,0.030168741941452026,0.029257889837026596,0.03510935604572296,0,0,0
1437196116.51373196,33875034,0.029116831719875336,0.030645741149783134,0.03782757371664047,0,0,0
1437196116.75156403,34215831,0.0333581417798996,0.032925136387348175,0.03620518371462822,0,0,0
1437196116.97960782,34556991,0.03675219416618347,0.03374744579195976,0.03927844390273094,0,0,0
1437196117.54908395,34898442,0.03391888365149498,0.03270409256219864,0.042663101106882095,0,0,0
1437196117.78710794,35240058,0.02833287976682186,0.03143245354294777,0.041421037167310715,0,0,0
1437196118.01419592,35582246,0.033008791506290436,0.03272378817200661,0.04264049977064133,0,0,0
1437196118.58447194,35923930,0.03144742548465729,0.026646733283996582,0.03951393440365791,0,0,0
1437196118.92254400,36265674,0.030119502916932106,0.03144695982336998,0.04299860820174217,0,0,0
1437196119.16570401,36606994,0.03217887505888939,0.029328828677535057,0.03733760863542557,0,0,0
1437196119.47982001,36948375,0.031000833958387375,0.029055241495370865,0.039898473769426346,0,0,0
1437196119.85400796,37289060,0.05208940804004669,0.05496542155742645,0.09175687283277512,0,0,0
1437196120.08593202,37630889,0.058367613703012466,0.06262093037366867,0.0689426064491272,0,0,0
1437196120.35813594,37973144,0.04409055411815643,0.05429794639348984,0.07508323341608047,0,0,0
1437196120.85728383,38313963,0.051260143518447876,0.0509842149913311,0.061402592808008194,0,0,0
1437196121.08643603,38655284,0.05037859454751015,0.06007225066423416,0.06550777703523636,0,0,0
1437196121.51455998,38996536,0.10124178230762482,0.07959560304880142,0.12438073009252548,0,0,0
1437196121.73179984,39336877,0.2342970222234726,0.16450974345207214,0.3488965928554535,0,0,0
1437196122.20995188,39678857,0.05369003117084503,0.05399443581700325,0.07620002329349518,0,0,0
1437196122.57414389,39980483,0.031657423824071884,0.030270665884017944,0.04059745371341705,0,0,0
1437196122.90018797,40281751,0.030923370271921158,0.03091246262192726,0.03775893524289131,0,0,0
1437196123.30839992,40583240,0.030147233977913857,0.03365852311253548,0.03814141824841499,0,0,0
1437196123.66751194,40884307,0.028737468644976616,0.0271456241607666,0.03685465827584267,0,0,0
1437196123.99766397,41185667,0.029907362535595894,0.03207583725452423,0.03582062944769859,0,0,0
1437196124.22481203,41486621,0.028410308063030243,0.03073711134493351,0.041135914623737335,0,0,0
1437196124.58695602,41788371,0.029045183211565018,0.03161807358264923,0.041478972882032394,0,0,0
1437196124.82513189,42090412,0.03070731647312641,0.03078480251133442,0.04055165499448776,0,0,0
1437196125.06010389,42392209,0.034051310271024704,0.03404635563492775,0.04057645797729492,0,0,0
1437196125.41426396,42692906,0.032157912850379944,0.02952788956463337,0.04548690840601921,0,0,0
1437196125.67731595,42994144,0.036079857498407364,0.03277195617556572,0.04144294559955597,0,0,0
1437196126.03158784,43295546,0.03172161430120468,0.03084101900458336,0.038812633603811264,0,0,0
1437196126.27556396,43597175,0.03137734904885292,0.029729727655649185,0.04184604808688164,0,0,0
1437196126.51673603,43899046,0.03580820932984352,0.02980663813650608,0.03342854604125023,0,0,0
1437196126.86708403,44201756,0.032396238297224045,0.03358577936887741,0.040619105100631714,0,0,0
1437196127.10410404,44502995,0.029269246384501457,0.030179746448993683,0.03995257616043091,0,0,0
1437196127.34696388,44804712,0.02969660796225071,0.030779633671045303,0.04217151924967766,0,0,0
1437196127.69716787,45105988,0.032896678894758224,0.03331189230084419,0.04184433072805405,0,0,0
1437196127.93123603,45407971,0.03028138354420662,0.03057417832314968,0.038306135684251785,0,0,0
1437196128.58962393,45709809,0.03155430033802986,0.03398245945572853,0.043466966599226,0,0,0
1437196128.83268785,46011757,0.02948114462196827,0.02924531325697899,0.03646447882056236,0,0,0
1437196129.14780784,46313123,0.03478167578577995,0.03103642165660858,0.038187041878700256,0,0,0
1437196129.59308386,46614961,0.02718433551490307,0.029749317094683647,0.04004061594605446,0,0,0
1437196129.82509589,46916245,0.027550138533115387,0.0308896005153656,0.037601154297590256,0,0,0
1437196130.21827197,47217680,0.03251000493764877,0.031076006591320038,0.03854256868362427,0,0,0
1437196130.56341600,47558768,0.028956791386008263,0.029538841918110847,0.03929778188467026,0,0,0
1437196130.97257590,47901241,0.0322054922580719,0.03354237601161003,0.041839104145765305,0,0,0
1437196131.45761204,48242171,0.030451718717813492,0.029787743464112282,0.037216197699308395,0,0,0
1437196131.74282384,48583362,0.031160619109869003,0.03385751694440842,0.0352926179766655,0,0,0
1437196132.07707191,48965793,0.033290375024080276,0.02806917019188404,0.04313645884394646,0,0,0
1437196132.30117583,49347343,0.030685337260365486,0.0290227048099041,0.04275484383106232,0,0,0
1437196132.72840786,49729650,0.030119745060801506,0.03214361518621445,0.04275490716099739,0,0,0
1437196133.07753205,50152039,0.02974190190434456,0.03030778467655182,0.039670512080192566,0,0,0
1437196133.32545996,50572694,0.030105631798505783,0.030492721125483513,0.03704734146595001,0,0,0
1437196133.66300797,50994935,0.030363060534000397,0.030206110328435898,0.041993461549282074,0,0,0
1437196134.00591183,51417049,0.03318373113870621,0.02975468896329403,0.041076209396123886,0,0,0
1437196134.52631593,51839554,0.031144779175519943,0.03247972950339317,0.039008978754282,0,0,0
1437196134.75601602,52261320,0.03248732164502144,0.032204583287239075,0.038104984909296036,0,0,0
1437196135.21145582,52683049,0.031558260321617126,0.02965114638209343,0.036118824034929276,0,0,0
1437196135.56545997,53065281,0.032135918736457825,0.032174643129110336,0.044685062021017075,0,0,0
1437196135.92869592,53446729,0.031352777034044266,0.03031744435429573,0.03965900465846062,0,0,0
1437196136.29469585,53828962,0.029010942205786705,0.03199991211295128,0.0368061326444149,0,0,0
1437196136.65980005,54170818,0.03437944874167442,0.031057419255375862,0.04134532809257507,0,0,0
1437196136.92438793,54511753,0.03349190577864647,0.031936004757881165,0.03854595497250557,0,0,0
1437196137.24124789,54853819,0.028446711599826813,0.02830815687775612,0.03754870221018791,0,0,0
1437196137.63630795,55155574,0.02941233105957508,0.03146498277783394,0.039568427950143814,0,0,0
1437196137.97058797,55456997,0.030067337676882744,0.03263283520936966,0.03752044215798378,0,0,0
1437196138.21767592,55758747,0.0307942945510149,0.03334550932049751,0.04497026652097702,0,0,0
1437196138.44172382,56060080,0.030326981097459793,0.028464898467063904,0.0391479916870594,0,0,0
1437196138.87287593,56361805,0.030845966190099716,0.028210602700710297,0.038485605269670486,0,0,0
1437196139.11891603,56663999,0.03131046146154404,0.028607824817299843,0.040566958487033844,0,0,0
1437196139.53153205,56965559,0.031052950769662857,0.027552958577871323,0.04054734855890274,0,0,0
1437196139.96531200,57266564,0.03330171853303909,0.03085668385028839,0.040296927094459534,0,0,0
1437196140.29137588,57568525,0.030430423095822334,0.032694991677999496,0.04307537153363228,0,0,0
1437196140.73783183,57870156,0.03491924703121185,0.03008129447698593,0.04057779535651207,0,0,0
1437196140.98068404,58171808,0.033160340040922165,0.02783999592065811,0.04254121705889702,0,0,0
1437196141.32687998,58473337,0.036402035504579544,0.029552791267633438,0.0443323589861393,0,0,0
1437196141.77321982,58775232,0.03317293897271156,0.030200567096471786,0.040314141660928726,0,0,0
1437196142.01220393,59076678,0.03414054587483406,0.03321876749396324,0.04596130549907684,0,0,0
1437196142.23933196,59377567,0.03207078203558922,0.02988719381392002,0.04045459255576134,0,0,0
1437196142.66663194,59719008,0.028747795149683952,0.03353056311607361,0.03867579996585846,0,0,0
1437196142.94257188,60061400,0.03219286724925041,0.03085598535835743,0.0427369587123394,0,0,0
1437196143.29378796,60402764,0.03226107731461525,0.030069593340158463,0.03919633850455284,0,0,0
1437196143.66993189,60744634,0.033946532756090164,0.028456293046474457,0.037959832698106766,0,0,0
1437196143.91095996,61086589,0.029828477650880814,0.029241282492876053,0.039523400366306305,0,0,0
1437196144.30032802,61427969,0.03181414306163788,0.03364122658967972,0.03856859728693962,0,0,0
1437196144.74039197,61809817,0.030629310756921768,0.03143126145005226,0.03947250545024872,0,0,0
1437196145.01947188,62191698,0.03013625368475914,0.031630147248506546,0.04390887916088104,0,0,0
1437196145.32464004,62573134,0.03276389092206955,0.029329657554626465,0.035572733730077744,0,0,0
1437196145.81780791,62955012,0.033368006348609924,0.03277555853128433,0.038452133536338806,0,0,0
1437196146.12595201,63336194,0.028555307537317276,0.029177898541092873,0.04348938539624214,0,0,0
1437196146.47121191,63718841,0.03326797112822533,0.03144960105419159,0.042188216000795364,0,0,0
1437196146.80230784,64101820,0.032874055206775665,0.0300840362906456,0.04232174903154373,0,0,0
1437196147.20134783,64483371,0.030264243483543396,0.03172618895769119,0.04126274585723877,0,0,0
1437196147.64057183,64865167,0.030552061274647713,0.03292446583509445,0.04079936817288399,0,0,0
1437196147.95418000,65247175,0.02817651256918907,0.029517458751797676,0.03907407075166702,0,0,0
1437196148.44392395,65629250,0.031345516443252563,0.02823379635810852,0.04279397428035736,0,0,0
1437196148.74813604,66011583,0.02973921038210392,0.030760210007429123,0.03536902740597725,0,0,0
1437196149.05619192,66393480,0.030962476506829262,0.03327629715204239,0.0388345792889595,0,0,0
1437196149.28427196,66774515,0.03381721302866936,0.03065836988389492,0.03879807889461517,0,0,0
1437196149.65146804,67155815,0.03437520191073418,0.03812013193964958,0.036705370992422104,0,0,0
1437196150.02762389,67537929,0.031023018062114716,0.0335850827395916,0.03846939653158188,0,0,0
1437196150.30271196,67919975,0.03469908609986305,0.03075501322746277,0.03839575871825218,0,0,0
1437196150.78203988,68261717,0.031421780586242676,0.03114304505288601,0.041609156876802444,0,0,0
1437196151.09707189,68603561,0.027699219062924385,0.028213895857334137,0.03852372616529465,0,0,0
1437196151.51132393,68945260,0.031313374638557434,0.02694682404398918,0.040444955229759216,0,0,0
1437196151.75431204,69287336,0.02596721611917019,0.028913740068674088,0.03821985051035881,0,0,0
1437196152.02438784,69629344,0.03232720121741295,0.026311613619327545,0.04526430740952492,0,0,0
1437196152.47863603,69971198,0.03067711740732193,0.028726108372211456,0.039178114384412766,0,0,0
1437196152.80984402,70272512,0.03159879520535469,0.033628128468990326,0.04180900752544403,0,0,0
1437196153.13689995,70573768,0.031205013394355774,0.032956771552562714,0.04617295786738396,0,0,0
1437196153.64709592,70875366,0.030159933492541313,0.02590223401784897,0.04267638176679611,0,0,0
1437196154.03332782,71176236,0.028534991666674614,0.03040999360382557,0.03806681931018829,0,0,0
1437196154.45045590,71477640,0.03310098871588707,0.032483287155628204,0.041422586888074875,0,0,0
1437196154.79261994,71779917,0.029183894395828247,0.03326466307044029,0.03733809292316437,0,0,0
1437196155.20168805,72081963,0.02994617447257042,0.03189766779541969,0.03957033157348633,0,0,0
1437196155.58304787,72382856,0.03178878128528595,0.03132670372724533,0.038407471030950546,0,0,0
1437196155.82717586,72725592,0.03162137418985367,0.034134794026613235,0.03432310372591019,0,0,0
1437196156.17226386,73067128,0.03215152397751808,0.031460653990507126,0.04200289398431778,0,0,0
1437196156.50745583,73408189,0.033808428794145584,0.029318341985344887,0.04239937663078308,0,0,0
1437196156.85771203,73750186,0.031262852251529694,0.02741873450577259,0.03968716412782669,0,0,0
1437196157.10371590,74212129,0.03190738335251808,0.031005240976810455,0.0395643450319767,0,0,0
1437196157.34002399,74672927,0.031887173652648926,0.03150089085102081,0.04245630279183388,0,0,0
1437196157.56777596,75174327,0.03193960711359978,0.029055001214146614,0.03668659180402756,0,0,0
1437196158.12207198,75676254,0.034581542015075684,0.03247381001710892,0.0388314425945282,0,0,0
1437196158.75736403,76179445,0.034408751875162125,0.030945511534810066,0.03950456529855728,0,0,0
1437196158.98039985,76601326,0.02871953882277012,0.036830272525548935,0.0348358154296875,0,0,0
1437196159.61467195,77023278,0.03242894262075424,0.027945099398493767,0.04254899173974991,0,0,0
1437196159.84069586,77405473,0.029932592064142227,0.03214024007320404,0.035311080515384674,0,0,0
1437196160.44499183,77786612,0.031193841248750687,0.0337521992623806,0.04229486733675003,0,0,0
1437196160.75912404,78127972,0.031501371413469315,0.030742742121219635,0.047138046473264694,0,0,0
1437196160.99228001,78470291,0.03147616982460022,0.029440492391586304,0.04437871277332306,0,0,0
1437196161.30241585,78811542,0.029490260407328606,0.02805778756737709,0.044289592653512955,0,0,0
1437196161.65766788,79152644,0.031175760552287102,0.03081129863858223,0.04152974113821983,0,0,0
1437196161.99191999,79493590,0.03032541833817959,0.030653735622763634,0.03741976246237755,0,0,0
1437196162.22675204,79834449,0.029398852959275246,0.02926497533917427,0.04274463653564453,0,0,0
1437196162.69389200,80177058,0.0290671456605196,0.0275705736130476,0.04006597772240639,0,0,0
